$GPGGA,150302.000,5341.7840,N,01432.9698,E,2,16,0.65,-10.5,M,41.4,M,0000,0000*74
$GNRMC,150302.000,A,5341.7840,N,01432.9698,E,0.00,347.25,191215,,,D*7A
$GPVTG,347.25,T,,M,0.00,N,0.00,K,D*3F
$GPGGA,150303.000,5341.7840,N,01432.9698,E,2,16,0.65,-10.5,M,41.4,M,0000,0000*75
$GNGSA,A,3,07,05,23,16,30,02,06,09,,,,,1.26,0.65,1.08*19
$GNGSA,A,3,65,83,67,75,82,76,77,66,,,,,1.26,0.65,1.08*13
$GPGSV,3,1,11,07,66,169,19,09,64,084,32,30,36,199,34,02,34,261,24*7A
$GPGSV,3,2,11,05,32,302,32,23,27,086,19,16,22,043,20,06,22,216,17*79
$GPGSV,3,3,11,33,22,215,,26,07,021,20,29,06,329,17*4E
$GLGSV,3,1,09,66,74,097,32,76,66,130,22,67,46,309,25,75,35,038,24*66
$GLGSV,3,2,09,77,23,187,22,83,21,329,25,65,18,119,12,82,12,274,16*6A
$GLGSV,3,3,09,84,04,017,*52
$GNRMC,150303.000,A,5341.7840,N,01432.9698,E,0.00,347.25,191215,,,D*7B
$GPVTG,347.25,T,,M,0.00,N,0.00,K,D*3F
$GPGGA,150304.000,5341.7840,N,01432.9698,E,2,16,0.65,-10.5,M,41.4,M,0000,0000*72
$GNRMC,150304.000,A,5341.7840,N,01432.9698,E,0.00,347.25,191215,,,D*7C
$GPVTG,347.25,T,,M,0.00,N,0.00,K,D*3F
$GPGGA,150305.000,5341.7840,N,01432.9698,E,2,16,0.65,-10.5,M,41.4,M,0000,0000*73
$GNRMC,150305.000,A,5341.7840,N,01432.9698,E,0.00,347.25,191215,,,D*7D
$GPVTG,347.25,T,,M,0.00,N,0.00,K,D*3F
$GPGGA,150306.000,5341.7840,N,01432.9698,E,2,16,0.65,-10.5,M,41.4,M,0000,0000*70
$GNRMC,150306.000,A,5341.7840,N,01432.9698,E,0.00,347.25,191215,,,D*7E
$GPVTG,347.25,T,,M,0.00,N,0.00,K,D*3F
$GPGGA,150307.000,5341.7840,N,01432.9698,E,2,16,0.65,-10.5,M,41.4,M,0000,0000*71
$GNRMC,150307.000,A,5341.7840,N,01432.9698,E,0.00,347.25,191215,,,D*7F
$GPVTG,347.25,T,,M,0.00,N,0.00,K,D*3F
$GPGGA,150308.000,5341.7840,N,01432.9698,E,2,16,0.65,-10.5,M,41.4,M,0000,0000*7E
$GNGSA,A,3,07,05,23,16,30,02,06,09,,,,,1.26,0.65,1.08*19
$GNGSA,A,3,65,83,67,75,82,76,77,66,,,,,1.26,0.65,1.08*13
$GPGSV,3,1,11,07,66,169,17,09,64,084,32,30,36,199,34,02,34,261,24*74
$GPGSV,3,2,11,05,32,302,32,23,27,086,20,16,22,043,20,06,22,216,18*7C
$GPGSV,3,3,11,33,22,215,,26,07,021,20,29,06,329,17*4E
$GLGSV,3,1,09,66,74,097,31,76,66,130,22,67,46,309,26,75,35,038,24*66
$GLGSV,3,2,09,77,23,187,21,83,21,329,26,65,18,119,16,82,12,274,16*6E
$GLGSV,3,3,09,84,04,017,*52
$GNRMC,150308.000,A,5341.7840,N,01432.9698,E,0.00,347.25,191215,,,D*70
$GPVTG,347.25,T,,M,0.00,N,0.00,K,D*3F
$GPGGA,150309.000,5341.7840,N,01432.9698,E,2,16,0.65,-10.5,M,41.4,M,0000,0000*7F
$GNRMC,150309.000,A,5341.7840,N,01432.9698,E,0.00,347.25,191215,,,D*71
$GPVTG,347.25,T,,M,0.00,N,0.00,K,D*3F
$GPGGA,150310.000,5341.7840,N,01432.9698,E,2,16,0.65,-10.5,M,41.4,M,0000,0000*77
$GNRMC,150310.000,A,5341.7840,N,01432.9698,E,0.00,347.25,191215,,,D*79
$GPVTG,347.25,T,,M,0.00,N,0.00,K,D*3F
$GPGGA,150311.000,5341.7840,N,01432.9698,E,2,16,0.65,-10.5,M,41.4,M,0000,0000*76
$GNRMC,150311.000,A,5341.7840,N,01432.9698,E,0.00,347.25,191215,,,D*78
$GPVTG,347.25,T,,M,0.00,N,0.00,K,D*3F
$GPGGA,150312.000,5341.7840,N,01432.9698,E,2,16,0.65,-10.5,M,41.4,M,0000,0000*75
$GNRMC,150312.000,A,5341.7840,N,01432.9698,E,0.00,347.25,191215,,,D*7B
$GPVTG,347.25,T,,M,0.00,N,0.00,K,D*3F
$GPGGA,150313.000,5341.7840,N,01432.9698,E,2,16,0.65,-10.5,M,41.4,M,0000,0000*74
$GNGSA,A,3,07,05,23,16,30,02,06,09,,,,,1.26,0.65,1.08*19
$GNGSA,A,3,65,83,67,75,82,76,77,66,,,,,1.26,0.65,1.08*13
$GPGSV,3,1,11,07,66,169,20,09,64,084,32,30,36,199,33,02,34,261,23*70
$GPGSV,3,2,11,05,32,302,31,23,26,086,18,16,22,043,20,06,22,216,21*7F
$GPGSV,3,3,11,40,14,124,,29,06,329,17,26,06,021,20*4F
$GLGSV,3,1,09,66,74,097,31,76,66,130,22,67,46,309,25,75,35,038,25*64
$GLGSV,3,2,09,77,23,187,23,83,21,329,27,65,18,119,16,82,12,274,16*6D
$GLGSV,3,3,09,84,04,017,*52
$GNRMC,150313.000,A,5341.7840,N,01432.9698,E,0.00,347.25,191215,,,D*7A
$GPVTG,347.25,T,,M,0.00,N,0.00,K,D*3F
$GPGGA,150314.000,5341.7840,N,01432.9698,E,2,16,0.65,-10.5,M,41.4,M,0000,0000*73
$GNRMC,150314.000,A,5341.7840,N,01432.9698,E,0.00,347.25,191215,,,D*7D
$GPVTG,347.25,T,,M,0.00,N,0.00,K,D*3F
$GPGGA,150315.000,5341.7840,N,01432.9698,E,2,16,0.65,-10.5,M,41.4,M,0000,0000*72
$GNRMC,150315.000,A,5341.7840,N,01432.9698,E,0.00,347.25,191215,,,D*7C
$GPVTG,347.25,T,,M,0.00,N,0.00,K,D*3F
$GPGGA,150316.000,5341.7840,N,01432.9698,E,2,16,0.65,-10.5,M,41.4,M,0000,0000*71
$GNRMC,150316.000,A,5341.7840,N,01432.9698,E,0.00,347.25,191215,,,D*7F
$GPVTG,347.25,T,,M,0.00,N,0.00,K,D*3F
$GPGGA,150317.000,5341.7840,N,01432.9698,E,2,16,0.65,-10.5,M,41.4,M,0000,0000*70
$GNRMC,150317.000,A,5341.7840,N,01432.9698,E,0.00,347.25,191215,,,D*7E
$GPVTG,347.25,T,,M,0.00,N,0.00,K,D*3F
$GPGGA,150318.000,5341.7840,N,01432.9698,E,2,16,0.65,-10.5,M,41.4,M,0000,0000*7F
$GNGSA,A,3,07,05,23,16,30,02,06,09,,,,,1.26,0.65,1.08*19
$GNGSA,A,3,65,83,67,75,82,76,77,66,,,,,1.26,0.65,1.08*13
$GPGSV,3,1,11,07,66,169,21,09,64,084,31,30,37,199,30,02,34,261,19*79
$GPGSV,3,2,11,05,32,302,31,23,26,086,18,16,22,043,17,06,22,216,23*79
$GPGSV,3,3,11,40,14,124,,29,06,329,16,26,06,021,19*44
$GLGSV,3,1,09,66,74,097,32,76,66,130,21,67,46,309,24,75,35,038,24*64
$GLGSV,3,2,09,77,23,187,22,83,21,329,27,65,18,119,17,82,12,274,14*6F
$GLGSV,3,3,09,84,04,017,*52
$GNRMC,150318.000,A,5341.7840,N,01432.9698,E,0.00,347.25,191215,,,D*71
$GPVTG,347.25,T,,M,0.00,N,0.00,K,D*3F
$GPGGA,150319.000,5341.7840,N,01432.9698,E,2,16,0.65,-10.5,M,41.4,M,0000,0000*7E
$GNRMC,150319.000,A,5341.7840,N,01432.9698,E,0.00,347.25,191215,,,D*70
$GPVTG,347.25,T,,M,0.00,N,0.00,K,D*3F
$GPGGA,150320.000,5341.7840,N,01432.9698,E,2,16,0.65,-10.5,M,41.4,M,0000,0000*74
$GNRMC,150320.000,A,5341.7840,N,01432.9698,E,0.00,347.25,191215,,,D*7A
$GPVTG,347.25,T,,M,0.00,N,0.00,K,D*3F
$GPGGA,150321.000,5341.7840,N,01432.9698,E,2,16,0.65,-10.5,M,41.4,M,0000,0000*75
$GNRMC,150321.000,A,5341.7840,N,01432.9698,E,0.00,347.25,191215,,,D*7B
$GPVTG,347.25,T,,M,0.00,N,0.00,K,D*3F
$GPGGA,150322.000,5341.7840,N,01432.9698,E,2,16,0.65,-10.5,M,41.4,M,0000,0000*76
$GNRMC,150322.000,A,5341.7840,N,01432.9698,E,0.00,347.25,191215,,,D*78
$GPVTG,347.25,T,,M,0.00,N,0.00,K,D*3F
$GPGGA,150323.000,5341.7840,N,01432.9698,E,2,16,0.65,-10.5,M,41.4,M,0000,0000*77
$GNGSA,A,3,07,05,23,16,30,02,06,09,,,,,1.26,0.65,1.08*19
$GNGSA,A,3,65,83,67,75,82,76,77,66,,,,,1.26,0.65,1.08*13
$GPGSV,3,1,11,07,66,169,20,09,64,084,31,30,37,199,28,02,34,261,17*7F
$GPGSV,3,2,11,05,32,302,31,23,26,086,18,16,22,043,17,06,22,216,23*79
$GPGSV,3,3,11,44,13,123,,29,06,329,13,26,06,021,19*45
$GLGSV,3,1,09,66,74,097,33,76,66,130,20,67,46,309,25,75,35,038,23*62
$GLGSV,3,2,09,77,23,187,22,83,21,329,28,65,18,119,17,82,12,274,11*65
$GLGSV,3,3,09,84,04,017,*52
$GNRMC,150323.000,A,5341.7840,N,01432.9698,E,0.00,347.25,191215,,,D*79
$GPVTG,347.25,T,,M,0.00,N,0.00,K,D*3F
$GPGGA,150324.000,5341.7840,N,01432.9698,E,2,16,0.65,-10.5,M,41.4,M,0000,0000*70
$GNRMC,150324.000,A,5341.7840,N,01432.9698,E,0.00,347.25,191215,,,D*7E
$GPVTG,347.25,T,,M,0.00,N,0.00,K,D*3F
$GPGGA,150325.000,5341.7840,N,01432.9698,E,2,16,0.65,-10.5,M,41.4,M,0000,0000*71
$GNRMC,150325.000,A,5341.7840,N,01432.9698,E,0.00,347.25,191215,,,D*7F
$GPVTG,347.25,T,,M,0.00,N,0.00,K,D*3F
$GPGGA,150326.000,5341.7840,N,01432.9698,E,2,15,0.67,-10.5,M,41.4,M,0000,0000*73
$GNRMC,150326.000,A,5341.7840,N,01432.9698,E,0.00,347.25,191215,,,D*7C
$GPVTG,347.25,T,,M,0.00,N,0.00,K,D*3F
$GPGGA,150327.000,5341.7840,N,01432.9698,E,2,15,0.67,-10.5,M,41.4,M,0000,0000*72
$GNRMC,150327.000,A,5341.7840,N,01432.9698,E,0.00,347.25,191215,,,D*7D
$GPVTG,347.25,T,,M,0.00,N,0.00,K,D*3F
$GPGGA,150328.000,5341.7840,N,01432.9698,E,2,15,0.67,-10.5,M,41.4,M,0000,0000*7D
$GNGSA,A,3,07,05,23,16,30,02,06,09,,,,,1.33,0.67,1.15*13
$GNGSA,A,3,65,83,67,75,76,77,66,,,,,,1.33,0.67,1.15*13
$GPGSV,3,1,11,07,66,169,19,09,64,084,31,30,37,199,28,02,34,261,15*77
$GPGSV,3,2,11,05,32,302,29,23,26,086,19,16,22,043,17,06,22,216,24*76
$GPGSV,3,3,11,44,13,123,,29,06,329,14,26,06,021,20*48
$GLGSV,3,1,09,66,74,097,31,76,66,130,19,67,46,309,28,75,35,038,21*65
$GLGSV,3,2,09,77,23,187,21,83,21,329,27,65,18,119,17,82,12,274,*69
$GLGSV,3,3,09,84,04,017,*52
$GNRMC,150328.000,A,5341.7840,N,01432.9698,E,0.00,347.25,191215,,,D*72
$GPVTG,347.25,T,,M,0.00,N,0.00,K,D*3F
$GPGGA,150329.000,5341.7840,N,01432.9698,E,2,15,0.67,-10.5,M,41.4,M,0000,0000*7C
$GNRMC,150329.000,A,5341.7840,N,01432.9698,E,0.00,347.25,191215,,,D*73
$GPVTG,347.25,T,,M,0.00,N,0.00,K,D*3F
$GPGGA,150330.000,5341.7840,N,01432.9698,E,2,15,0.67,-10.5,M,41.4,M,0000,0000*74
$GNRMC,150330.000,A,5341.7840,N,01432.9698,E,0.00,347.25,191215,,,D*7B
$GPVTG,347.25,T,,M,0.00,N,0.00,K,D*3F
$GPGGA,150331.000,5341.7840,N,01432.9698,E,2,15,0.67,-10.5,M,41.4,M,0000,0000*75
$GNRMC,150331.000,A,5341.7840,N,01432.9698,E,0.00,347.25,191215,,,D*7A
$GPVTG,347.25,T,,M,0.00,N,0.00,K,D*3F
$GPGGA,150332.000,5341.7840,N,01432.9698,E,2,15,0.67,-10.5,M,41.4,M,0000,0000*76
$GNRMC,150332.000,A,5341.7840,N,01432.9698,E,0.00,347.25,191215,,,D*79
$GPVTG,347.25,T,,M,0.00,N,0.00,K,D*3F
$GPGGA,150333.000,5341.7840,N,01432.9698,E,2,15,0.67,-10.5,M,41.4,M,0000,0000*77
$GNGSA,A,3,07,05,23,16,30,02,06,09,,,,,1.33,0.67,1.15*13
$GNGSA,A,3,65,83,67,75,76,77,66,,,,,,1.33,0.67,1.15*13
$GPGSV,3,1,11,07,66,169,21,09,64,084,31,30,37,199,28,02,34,261,15*7C
$GPGSV,3,2,11,05,32,302,28,23,26,086,20,16,22,043,17,06,22,216,21*78
$GPGSV,3,3,11,29,06,329,,26,06,021,19,34,,,*72
$GLGSV,3,1,09,66,74,097,32,76,66,130,19,67,46,309,27,75,35,038,23*6B
$GLGSV,3,2,09,77,23,187,21,83,21,329,28,65,18,119,17,82,12,274,*66
$GLGSV,3,3,09,84,04,017,*52
$GNRMC,150333.000,A,5341.7840,N,01432.9698,E,0.00,347.25,191215,,,D*78
$GPVTG,347.25,T,,M,0.00,N,0.00,K,D*3F
$GPGGA,150334.000,5341.7840,N,01432.9698,E,2,15,0.67,-10.5,M,41.4,M,0000,0000*70
$GNRMC,150334.000,A,5341.7840,N,01432.9698,E,0.00,347.25,191215,,,D*7F
$GPVTG,347.25,T,,M,0.00,N,0.00,K,D*3F
$GPGGA,150335.000,5341.7840,N,01432.9698,E,2,15,0.67,-10.5,M,41.4,M,0000,0000*71
$GNRMC,150335.000,A,5341.7840,N,01432.9698,E,0.00,347.25,191215,,,D*7E
$GPVTG,347.25,T,,M,0.00,N,0.00,K,D*3F
$GPGGA,150336.000,5341.7840,N,01432.9698,E,2,15,0.67,-10.5,M,41.4,M,0000,0000*72
$GNRMC,150336.000,A,5341.7840,N,01432.9698,E,0.00,347.25,191215,,,D*7D
$GPVTG,347.25,T,,M,0.00,N,0.00,K,D*3F
$GPGGA,150337.000,5341.7840,N,01432.9698,E,2,15,0.67,-10.5,M,41.4,M,0000,0000*73
$GNRMC,150337.000,A,5341.7840,N,01432.9698,E,0.00,347.25,191215,,,D*7C
$GPVTG,347.25,T,,M,0.00,N,0.00,K,D*3F
$GPGGA,150338.000,5341.7840,N,01432.9698,E,2,15,0.67,-10.5,M,41.4,M,0000,0000*7C
$GNGSA,A,3,07,05,23,16,30,02,06,09,,,,,1.33,0.67,1.15*13
$GNGSA,A,3,65,83,67,75,76,77,66,,,,,,1.33,0.67,1.15*13
$GPGSV,3,1,11,07,66,169,23,09,64,084,32,30,37,199,29,02,34,261,17*7E
$GPGSV,3,2,11,05,32,302,30,23,26,086,17,16,22,043,15,06,22,216,24*72
$GPGSV,3,3,11,29,06,329,,26,06,021,18,35,,,*72
$GLGSV,3,1,09,66,74,097,32,76,66,130,18,67,46,309,26,75,35,038,21*69
$GLGSV,3,2,09,77,23,187,22,83,21,329,27,65,18,119,19,82,12,274,*64
$GLGSV,3,3,09,84,04,017,*52
$GNRMC,150338.000,A,5341.7840,N,01432.9698,E,0.00,347.25,191215,,,D*73
$GPVTG,347.25,T,,M,0.00,N,0.00,K,D*3F
$GPGGA,150339.000,5341.7840,N,01432.9698,E,2,15,0.67,-10.5,M,41.4,M,0000,0000*7D
$GNRMC,150339.000,A,5341.7840,N,01432.9698,E,0.00,347.25,191215,,,D*72
$GPVTG,347.25,T,,M,0.00,N,0.00,K,D*3F
$GPGGA,150340.000,5341.7840,N,01432.9698,E,2,15,0.67,-10.5,M,41.4,M,0000,0000*73
$GNRMC,150340.000,A,5341.7840,N,01432.9698,E,0.00,347.25,191215,,,D*7C
$GPVTG,347.25,T,,M,0.00,N,0.00,K,D*3F
$GPGGA,150341.000,5341.7840,N,01432.9698,E,2,15,0.67,-10.5,M,41.4,M,0000,0000*72
$GNRMC,150341.000,A,5341.7840,N,01432.9698,E,0.00,347.25,191215,,,D*7D
$GPVTG,347.25,T,,M,0.00,N,0.00,K,D*3F
$GPGGA,150342.000,5341.7840,N,01432.9698,E,2,15,0.67,-10.5,M,41.4,M,0000,0000*71
$GNRMC,150342.000,A,5341.7840,N,01432.9698,E,0.00,347.25,191215,,,D*7E
$GPVTG,347.25,T,,M,0.00,N,0.00,K,D*3F
$GPGGA,150343.000,5341.7840,N,01432.9698,E,2,15,0.67,-10.5,M,41.4,M,0000,0000*70
$GNGSA,A,3,07,05,23,16,30,02,06,09,,,,,1.33,0.67,1.15*13
$GNGSA,A,3,65,83,67,75,76,77,66,,,,,,1.33,0.67,1.15*13
$GPGSV,3,1,11,07,66,169,21,09,64,084,33,30,37,199,27,02,34,261,13*77
$GPGSV,3,2,11,05,32,302,30,23,26,086,17,16,22,043,16,06,22,216,24*71
$GPGSV,3,3,11,29,06,329,16,26,06,021,18,36,,,*76
$GLGSV,3,1,09,66,73,099,32,76,66,130,18,67,47,310,27,75,35,038,21*68
$GLGSV,3,2,09,77,23,187,22,83,21,329,28,65,17,119,19,82,12,274,*64
$GLGSV,3,3,09,84,04,017,*52
$GNRMC,150343.000,A,5341.7840,N,01432.9698,E,0.00,347.25,191215,,,D*7F
$GPVTG,347.25,T,,M,0.00,N,0.00,K,D*3F
$GPGGA,150344.000,5341.7840,N,01432.9698,E,2,15,0.67,-10.5,M,41.4,M,0000,0000*77
$GNRMC,150344.000,A,5341.7840,N,01432.9698,E,0.00,347.25,191215,,,D*78
$GPVTG,347.25,T,,M,0.00,N,0.00,K,D*3F
$GPGGA,150345.000,5341.7840,N,01432.9698,E,2,15,0.67,-10.5,M,41.4,M,0000,0000*76
$GNRMC,150345.000,A,5341.7840,N,01432.9698,E,0.00,347.25,191215,,,D*79
$GPVTG,347.25,T,,M,0.00,N,0.00,K,D*3F
$GPGGA,150346.000,5341.7840,N,01432.9698,E,2,15,0.67,-10.5,M,41.4,M,0000,0000*75
$GNRMC,150346.000,A,5341.7840,N,01432.9698,E,0.00,347.25,191215,,,D*7A
$GPVTG,347.25,T,,M,0.00,N,0.00,K,D*3F
$GPGGA,150347.000,5341.7840,N,01432.9698,E,2,15,0.67,-10.5,M,41.4,M,0000,0000*74
$GNRMC,150347.000,A,5341.7840,N,01432.9698,E,0.00,347.25,191215,,,D*7B
$GPVTG,347.25,T,,M,0.00,N,0.00,K,D*3F
$GPGGA,150348.000,5341.7840,N,01432.9698,E,2,15,0.67,-10.5,M,41.4,M,0000,0000*7B
$GNGSA,A,3,07,05,23,16,30,02,06,09,,,,,1.33,0.67,1.15*13
$GNGSA,A,3,65,83,67,75,76,77,66,,,,,,1.33,0.67,1.15*13
$GPGSV,3,1,11,07,66,169,22,09,64,084,33,30,37,199,29,02,34,261,18*71
$GPGSV,3,2,11,05,32,302,30,23,26,086,17,16,22,043,15,06,22,216,26*70
$GPGSV,3,3,11,29,06,329,15,26,06,021,18,36,,,*75
$GLGSV,3,1,09,66,73,099,33,76,66,130,17,67,47,310,28,75,35,038,20*68
$GLGSV,3,2,09,77,23,187,23,83,21,329,26,65,17,119,19,82,12,274,*6B
$GLGSV,3,3,09,84,04,017,*52
$GNRMC,150348.000,A,5341.7840,N,01432.9698,E,0.00,347.25,191215,,,D*74
$GPVTG,347.25,T,,M,0.00,N,0.00,K,D*3F
$GPGGA,150349.000,5341.7840,N,01432.9698,E,2,15,0.67,-10.5,M,41.4,M,0000,0000*7A
$GNRMC,150349.000,A,5341.7840,N,01432.9698,E,0.00,347.25,191215,,,D*75
$GPVTG,347.25,T,,M,0.00,N,0.00,K,D*3F
$GPGGA,150350.000,5341.7840,N,01432.9698,E,2,15,0.67,-10.5,M,41.4,M,0000,0000*72
$GNRMC,150350.000,A,5341.7840,N,01432.9698,E,0.00,347.25,191215,,,D*7D
$GPVTG,347.25,T,,M,0.00,N,0.00,K,D*3F
$GPGGA,150351.000,5341.7840,N,01432.9698,E,2,16,0.65,-10.5,M,41.4,M,0000,0000*72
$GNRMC,150351.000,A,5341.7840,N,01432.9698,E,0.00,347.25,191215,,,D*7C
$GPVTG,347.25,T,,M,0.00,N,0.00,K,D*3F
$GPGGA,150352.000,5341.7840,N,01432.9698,E,2,16,0.65,-10.5,M,41.4,M,0000,0000*71
$GNRMC,150352.000,A,5341.7840,N,01432.9698,E,0.00,347.25,191215,,,D*7F
$GPVTG,347.25,T,,M,0.00,N,0.00,K,D*3F
$GPGGA,150353.000,5341.7840,N,01432.9698,E,2,16,0.65,-10.5,M,41.4,M,0000,0000*70
$GNGSA,A,3,07,05,23,16,30,02,06,09,,,,,1.26,0.65,1.08*19
$GNGSA,A,3,65,83,67,75,82,76,77,66,,,,,1.26,0.65,1.08*13
$GPGSV,3,1,11,07,66,169,26,09,64,084,32,30,37,199,29,02,34,261,18*74
$GPGSV,3,2,11,05,32,302,29,23,26,086,17,16,22,043,18,06,22,216,26*75
$GPGSV,3,3,11,29,06,329,15,26,06,021,18,41,,,*75
$GLGSV,3,1,09,66,73,099,33,76,67,128,17,67,47,310,28,75,35,038,21*61
$GLGSV,3,2,09,77,23,187,24,83,21,329,26,65,17,119,19,82,12,274,16*6B
$GLGSV,3,3,09,84,04,017,*52
$GNRMC,150353.000,A,5341.7840,N,01432.9698,E,0.00,347.25,191215,,,D*7E
$GPVTG,347.25,T,,M,0.00,N,0.00,K,D*3F
$GPGGA,150354.000,5341.7840,N,01432.9698,E,2,16,0.65,-10.5,M,41.4,M,0000,0000*77
$GNRMC,150354.000,A,5341.7840,N,01432.9698,E,0.00,347.25,191215,,,D*79
$GPVTG,347.25,T,,M,0.00,N,0.00,K,D*3F
$GPGGA,150355.000,5341.7840,N,01432.9698,E,2,16,0.65,-10.5,M,41.4,M,0000,0000*76
$GNRMC,150355.000,A,5341.7840,N,01432.9698,E,0.00,347.25,191215,,,D*78
$GPVTG,347.25,T,,M,0.00,N,0.00,K,D*3F
$GPGGA,150356.000,5341.7840,N,01432.9698,E,2,16,0.65,-10.5,M,41.4,M,0000,0000*75
$GNRMC,150356.000,A,5341.7840,N,01432.9698,E,0.00,347.25,191215,,,D*7B
$GPVTG,347.25,T,,M,0.00,N,0.00,K,D*3F
$GPGGA,150357.000,5341.7840,N,01432.9698,E,2,16,0.65,-10.5,M,41.4,M,0000,0000*74
$GNRMC,150357.000,A,5341.7840,N,01432.9698,E,0.00,347.25,191215,,,D*7A
$GPVTG,347.25,T,,M,0.00,N,0.00,K,D*3F
$GPGGA,150358.000,5341.7840,N,01432.9698,E,2,16,0.65,-10.5,M,41.4,M,0000,0000*7B
$GNGSA,A,3,07,05,23,16,30,02,06,09,,,,,1.26,0.65,1.08*19
$GNGSA,A,3,65,83,67,75,82,76,77,66,,,,,1.26,0.65,1.08*13
$GPGSV,3,1,11,07,66,169,28,09,64,084,32,30,37,199,30,02,34,261,18*72
$GPGSV,3,2,11,05,32,302,28,23,26,086,18,16,22,043,17,06,22,216,26*74
$GPGSV,3,3,11,29,06,329,16,26,06,021,18,43,,,*74
$GLGSV,3,1,09,66,73,099,32,76,67,128,19,67,47,310,28,75,35,038,21*6E
$GLGSV,3,2,09,77,23,187,24,83,21,329,28,65,17,119,19,82,12,273,15*61
$GLGSV,3,3,09,84,04,017,*52
$GNRMC,150358.000,A,5341.7840,N,01432.9698,E,0.00,347.25,191215,,,D*75
$GPVTG,347.25,T,,M,0.00,N,0.00,K,D*3F
$GPGGA,150359.000,5341.7840,N,01432.9698,E,2,16,0.65,-10.5,M,41.4,M,0000,0000*7A
$GNRMC,150359.000,A,5341.7840,N,01432.9698,E,0.00,347.25,191215,,,D*74
$GPVTG,347.25,T,,M,0.00,N,0.00,K,D*3F
$GPGGA,150400.000,5341.7840,N,01432.9698,E,2,16,0.65,-10.5,M,41.4,M,0000,0000*71
$GNRMC,150400.000,A,5341.7840,N,01432.9698,E,0.00,347.25,191215,,,D*7F
$GPVTG,347.25,T,,M,0.00,N,0.00,K,D*3F
$GPGGA,150401.000,5341.7840,N,01432.9698,E,2,16,0.65,-10.5,M,41.4,M,0000,0000*70
$GNRMC,150401.000,A,5341.7840,N,01432.9698,E,0.00,347.25,191215,,,D*7E
$GPVTG,347.25,T,,M,0.00,N,0.00,K,D*3F
$GPGGA,150402.000,5341.7840,N,01432.9698,E,2,16,0.65,-10.5,M,41.4,M,0000,0000*73
$GNRMC,150402.000,A,5341.7840,N,01432.9698,E,0.00,347.25,191215,,,D*7D
$GPVTG,347.25,T,,M,0.00,N,0.00,K,D*3F
$GPGGA,150403.000,5341.7840,N,01432.9698,E,2,16,0.65,-10.5,M,41.4,M,0000,0000*72
$GNGSA,A,3,07,05,23,16,30,02,06,09,,,,,1.26,0.65,1.08*19
$GNGSA,A,3,65,83,67,75,82,76,77,66,,,,,1.26,0.65,1.08*13
$GPGSV,3,1,11,07,66,169,27,09,64,084,31,30,37,199,30,02,34,261,17*71
$GPGSV,3,2,11,05,32,302,29,23,26,086,18,16,22,043,16,06,22,216,25*77
$GPGSV,3,3,11,29,06,329,14,26,06,021,18,45,,,*70
$GLGSV,3,1,09,66,73,099,33,76,67,128,18,67,47,310,28,75,35,038,19*65
$GLGSV,3,2,09,77,23,187,24,83,21,328,27,65,17,119,18,82,12,273,18*63
$GLGSV,3,3,09,84,05,017,*53
$GNRMC,150403.000,A,5341.7840,N,01432.9698,E,0.00,347.25,191215,,,D*7C
$GPVTG,347.25,T,,M,0.00,N,0.00,K,D*3F
$GPGGA,150404.000,5341.7840,N,01432.9698,E,2,16,0.65,-10.5,M,41.4,M,0000,0000*75
$GNRMC,150404.000,A,5341.7840,N,01432.9698,E,0.00,347.25,191215,,,D*7B
$GPVTG,347.25,T,,M,0.00,N,0.00,K,D*3F
$GPGGA,150405.000,5341.7840,N,01432.9698,E,2,16,0.65,-10.5,M,41.4,M,0000,0000*74
$GNRMC,150405.000,A,5341.7840,N,01432.9698,E,0.00,347.25,191215,,,D*7A
$GPVTG,347.25,T,,M,0.00,N,0.00,K,D*3F
$GPGGA,150406.000,5341.7840,N,01432.9698,E,2,16,0.65,-10.5,M,41.4,M,0000,0000*77
$GNRMC,150406.000,A,5341.7840,N,01432.9698,E,0.00,347.25,191215,,,D*79
$GPVTG,347.25,T,,M,0.00,N,0.00,K,D*3F
$GPGGA,150407.000,5341.7840,N,01432.9698,E,2,16,0.65,-10.5,M,41.4,M,0000,0000*76
$GNRMC,150407.000,A,5341.7840,N,01432.9698,E,0.00,347.25,191215,,,D*78
$GPVTG,347.25,T,,M,0.00,N,0.00,K,D*3F
$GPGGA,150408.000,5341.7840,N,01432.9698,E,2,16,0.65,-10.5,M,41.4,M,0000,0000*79
$GNGSA,A,3,07,05,23,16,30,02,06,09,,,,,1.26,0.65,1.08*19
$GNGSA,A,3,65,83,67,75,82,76,77,66,,,,,1.26,0.65,1.08*13
$GPGSV,3,1,11,07,66,169,27,09,64,084,30,30,37,199,30,02,34,261,15*72
$GPGSV,3,2,11,05,32,302,29,23,26,086,20,16,22,043,14,06,22,216,25*7E
$GPGSV,3,3,11,29,06,329,16,26,06,021,18,46,,,*71
$GLGSV,3,1,09,66,73,099,33,76,67,128,19,67,47,310,28,75,35,038,18*65
$GLGSV,3,2,09,77,23,187,24,83,21,328,28,65,17,119,18,82,12,273,18*6C
$GLGSV,3,3,09,84,05,017,*53
$GNRMC,150408.000,A,5341.7840,N,01432.9698,E,0.00,347.25,191215,,,D*77
$GPVTG,347.25,T,,M,0.00,N,0.00,K,D*3F
$GPGGA,150409.000,5341.7840,N,01432.9698,E,2,16,0.65,-10.5,M,41.4,M,0000,0000*78
$GNRMC,150409.000,A,5341.7840,N,01432.9698,E,0.00,347.25,191215,,,D*76
$GPVTG,347.25,T,,M,0.00,N,0.00,K,D*3F
$GPGGA,150410.000,5341.7840,N,01432.9698,E,2,16,0.65,-10.5,M,41.4,M,0000,0000*70
$GNRMC,150410.000,A,5341.7840,N,01432.9698,E,0.00,347.25,191215,,,D*7E
$GPVTG,347.25,T,,M,0.00,N,0.00,K,D*3F
$GPGGA,150411.000,5341.7840,N,01432.9698,E,2,16,0.65,-10.5,M,41.4,M,0000,0000*71
$GNRMC,150411.000,A,5341.7840,N,01432.9698,E,0.00,347.25,191215,,,D*7F
$GPVTG,347.25,T,,M,0.00,N,0.00,K,D*3F
$GPGGA,150412.000,5341.7840,N,01432.9698,E,2,16,0.65,-10.5,M,41.4,M,0000,0000*72
$GNRMC,150412.000,A,5341.7840,N,01432.9698,E,0.00,347.25,191215,,,D*7C
$GPVTG,347.25,T,,M,0.00,N,0.00,K,D*3F
$GPGGA,150413.000,5341.7840,N,01432.9698,E,2,16,0.65,-10.5,M,41.4,M,0000,0000*73
$GNGSA,A,3,07,05,23,16,30,02,06,09,,,,,1.25,0.65,1.07*15
$GNGSA,A,3,65,83,67,75,82,76,77,66,,,,,1.25,0.65,1.07*1F
$GPGSV,3,1,11,07,66,168,29,09,63,084,29,30,37,199,30,02,34,261,14*73
$GPGSV,3,2,11,05,33,302,29,23,26,086,19,16,22,043,13,06,22,216,24*73
$GPGSV,3,3,11,29,06,329,17,26,06,021,18,46,,,*70
$GLGSV,3,1,09,66,73,099,32,76,67,128,19,67,47,310,29,75,35,038,18*65
$GLGSV,3,2,09,77,23,187,24,83,21,328,28,65,17,119,17,82,12,273,18*63
$GLGSV,3,3,09,84,05,017,*53
$GNRMC,150413.000,A,5341.7840,N,01432.9698,E,0.00,347.25,191215,,,D*7D
$GPVTG,347.25,T,,M,0.00,N,0.00,K,D*3F
$GPGGA,150414.000,5341.7840,N,01432.9698,E,2,16,0.65,-10.5,M,41.4,M,0000,0000*74
$GNRMC,150414.000,A,5341.7840,N,01432.9698,E,0.00,347.25,191215,,,D*7A
$GPVTG,347.25,T,,M,0.00,N,0.00,K,D*3F
$GPGGA,150415.000,5341.7840,N,01432.9698,E,2,16,0.65,-10.5,M,41.4,M,0000,0000*75
$GNRMC,150415.000,A,5341.7840,N,01432.9698,E,0.00,347.25,191215,,,D*7B
$GPVTG,347.25,T,,M,0.00,N,0.00,K,D*3F
$GPGGA,150416.000,5341.7840,N,01432.9698,E,2,16,0.65,-10.5,M,41.4,M,0000,0000*76
$GNRMC,150416.000,A,5341.7840,N,01432.9698,E,0.00,347.25,191215,,,D*78
$GPVTG,347.25,T,,M,0.00,N,0.00,K,D*3F
$GPGGA,150417.000,5341.7840,N,01432.9698,E,2,16,0.65,-10.5,M,41.4,M,0000,0000*77
$GNRMC,150417.000,A,5341.7840,N,01432.9698,E,0.00,347.25,191215,,,D*79
$GPVTG,347.25,T,,M,0.00,N,0.00,K,D*3F
$GPGGA,150418.000,5341.7840,N,01432.9698,E,2,16,0.65,-10.5,M,41.4,M,0000,0000*78
$GNGSA,A,3,07,05,23,16,30,02,06,09,,,,,1.25,0.65,1.07*15
$GNGSA,A,3,65,83,67,75,82,76,77,66,,,,,1.25,0.65,1.07*1F
$GPGSV,3,1,11,07,66,168,30,09,63,084,28,30,37,199,30,02,34,261,17*79
$GPGSV,3,2,11,05,33,302,29,23,26,086,18,16,22,043,14,06,22,216,24*75
$GPGSV,3,3,11,29,06,329,17,26,06,021,16,47,,,*7F
$GLGSV,3,1,09,66,73,099,33,76,67,128,19,67,47,310,29,75,35,038,18*64
$GLGSV,3,2,09,77,23,187,24,83,21,328,28,65,17,119,16,82,12,273,18*62
$GLGSV,3,3,09,84,05,017,*53
$GNRMC,150418.000,A,5341.7840,N,01432.9698,E,0.00,347.25,191215,,,D*76
$GPVTG,347.25,T,,M,0.00,N,0.00,K,D*3F
$GPGGA,150419.000,5341.7840,N,01432.9698,E,2,16,0.65,-10.5,M,41.4,M,0000,0000*79
$GNRMC,150419.000,A,5341.7840,N,01432.9698,E,0.00,347.25,191215,,,D*77
$GPVTG,347.25,T,,M,0.00,N,0.00,K,D*3F
$GPGGA,150420.000,5341.7840,N,01432.9698,E,2,16,0.65,-10.5,M,41.4,M,0000,0000*73
$GNRMC,150420.000,A,5341.7840,N,01432.9698,E,0.00,347.25,191215,,,D*7D
$GPVTG,347.25,T,,M,0.00,N,0.00,K,D*3F
$GPGGA,150421.000,5341.7840,N,01432.9698,E,2,16,0.65,-10.5,M,41.4,M,0000,0000*72
$GNRMC,150421.000,A,5341.7840,N,01432.9698,E,0.00,347.25,191215,,,D*7C
$GPVTG,347.25,T,,M,0.00,N,0.00,K,D*3F
$GPGGA,150422.000,5341.7840,N,01432.9698,E,2,16,0.65,-10.5,M,41.4,M,0000,0000*71
$GNRMC,150422.000,A,5341.7840,N,01432.9698,E,0.00,347.25,191215,,,D*7F
$GPVTG,347.25,T,,M,0.00,N,0.00,K,D*3F
$GPGGA,150423.000,5341.7840,N,01432.9698,E,2,16,0.65,-10.5,M,41.4,M,0000,0000*70
$GNGSA,A,3,07,05,23,16,30,02,06,09,,,,,1.25,0.65,1.07*15
$GNGSA,A,3,65,83,67,75,82,76,77,66,,,,,1.25,0.65,1.07*1F
$GPGSV,3,1,11,07,66,168,29,09,63,084,28,30,37,199,31,02,34,261,15*72
$GPGSV,3,2,11,05,33,302,29,23,26,086,18,16,22,043,13,06,22,216,24*72
$GPGSV,3,3,11,29,06,329,16,26,06,021,16,51,,,*79
$GLGSV,3,1,09,66,73,099,33,76,67,128,19,67,47,310,29,75,35,038,18*64
$GLGSV,3,2,09,77,23,187,24,83,21,328,29,65,17,119,15,82,12,273,17*6F
$GLGSV,3,3,09,84,05,017,*53
$GNRMC,150423.000,A,5341.7840,N,01432.9698,E,0.00,347.25,191215,,,D*7E
$GPVTG,347.25,T,,M,0.00,N,0.00,K,D*3F
$GPGGA,150424.000,5341.7840,N,01432.9698,E,2,16,0.65,-10.5,M,41.4,M,0000,0000*77
$GNRMC,150424.000,A,5341.7840,N,01432.9698,E,0.00,347.25,191215,,,D*79
$GPVTG,347.25,T,,M,0.00,N,0.00,K,D*3F
$GPGGA,150425.000,5341.7840,N,01432.9698,E,2,16,0.65,-10.5,M,41.4,M,0000,0000*76
$GNRMC,150425.000,A,5341.7840,N,01432.9698,E,0.00,347.25,191215,,,D*78
$GPVTG,347.25,T,,M,0.00,N,0.00,K,D*3F
$GPGGA,150426.000,5341.7840,N,01432.9698,E,2,16,0.65,-10.5,M,41.4,M,0000,0000*75
$GNRMC,150426.000,A,5341.7840,N,01432.9698,E,0.00,347.25,191215,,,D*7B
$GPVTG,347.25,T,,M,0.00,N,0.00,K,D*3F
$GPGGA,150427.000,5341.7840,N,01432.9698,E,2,16,0.65,-10.5,M,41.4,M,0000,0000*74
$GNRMC,150427.000,A,5341.7840,N,01432.9698,E,0.00,347.25,191215,,,D*7A
$GPVTG,347.25,T,,M,0.00,N,0.00,K,D*3F
$GPGGA,150428.000,5341.7840,N,01432.9698,E,2,16,0.65,-10.5,M,41.4,M,0000,0000*7B
$GNGSA,A,3,07,05,23,16,30,02,06,09,,,,,1.25,0.65,1.07*15
$GNGSA,A,3,65,83,67,75,82,76,77,66,,,,,1.25,0.65,1.07*1F
$GPGSV,3,1,11,07,66,168,29,09,63,084,28,30,37,199,32,02,34,261,15*71
$GPGSV,3,2,11,05,33,302,29,23,26,087,18,16,22,043,16,06,22,216,23*71
$GPGSV,3,3,11,29,06,329,17,26,06,021,16,42,,,*7A
$GLGSV,3,1,09,66,73,099,33,76,67,128,18,67,47,310,29,75,35,038,18*65
$GLGSV,3,2,09,77,23,187,23,83,21,328,29,65,17,119,14,82,12,273,17*69
$GLGSV,3,3,09,84,05,017,*53
$GNRMC,150428.000,A,5341.7840,N,01432.9698,E,0.00,347.25,191215,,,D*75
$GPVTG,347.25,T,,M,0.00,N,0.00,K,D*3F
$GPGGA,150429.000,5341.7840,N,01432.9698,E,2,16,0.65,-10.5,M,41.4,M,0000,0000*7A
$GNRMC,150429.000,A,5341.7840,N,01432.9698,E,0.00,347.25,191215,,,D*74
$GPVTG,347.25,T,,M,0.00,N,0.00,K,D*3F
$GPGGA,150430.000,5341.7840,N,01432.9698,E,2,16,0.65,-10.5,M,41.4,M,0000,0000*72
$GNRMC,150430.000,A,5341.7840,N,01432.9698,E,0.00,347.25,191215,,,D*7C
$GPVTG,347.25,T,,M,0.00,N,0.00,K,D*3F
$GPGGA,150431.000,5341.7840,N,01432.9698,E,2,16,0.65,-10.5,M,41.4,M,0000,0000*73
$GNRMC,150431.000,A,5341.7840,N,01432.9698,E,0.00,347.25,191215,,,D*7D
$GPVTG,347.25,T,,M,0.00,N,0.00,K,D*3F
$GPGGA,150432.000,5341.7840,N,01432.9698,E,2,16,0.65,-10.5,M,41.4,M,0000,0000*70
$GNRMC,150432.000,A,5341.7840,N,01432.9698,E,0.00,347.25,191215,,,D*7E
$GPVTG,347.25,T,,M,0.00,N,0.00,K,D*3F
$GPGGA,150433.000,5341.7840,N,01432.9698,E,2,16,0.65,-10.5,M,41.4,M,0000,0000*71
$GNGSA,A,3,07,05,23,16,30,02,06,09,,,,,1.25,0.65,1.07*15
$GNGSA,A,3,65,83,67,75,82,76,77,66,,,,,1.25,0.65,1.07*1F
$GPGSV,3,1,11,07,66,168,29,09,63,084,29,30,37,199,31,02,34,261,16*70
$GPGSV,3,2,11,05,33,302,27,23,26,087,17,16,22,043,16,06,22,216,21*72
$GPGSV,3,3,11,29,06,328,14,26,06,020,16,42,,,*79
$GLGSV,3,1,09,66,73,099,32,76,67,128,18,67,47,310,29,75,35,038,17*6B
$GLGSV,3,2,09,77,23,187,22,83,21,328,28,65,17,119,14,82,12,273,17*69
$GLGSV,3,3,09,84,05,017,*53
$GNRMC,150433.000,A,5341.7840,N,01432.9698,E,0.00,347.25,191215,,,D*7F
$GPVTG,347.25,T,,M,0.00,N,0.00,K,D*3F
$GPGGA,150434.000,5341.7840,N,01432.9698,E,2,16,0.65,-10.5,M,41.4,M,0000,0000*76
$GNRMC,150434.000,A,5341.7840,N,01432.9698,E,0.00,347.25,191215,,,D*78
$GPVTG,347.25,T,,M,0.00,N,0.00,K,D*3F
$GPGGA,150435.000,5341.7840,N,01432.9698,E,2,16,0.65,-10.5,M,41.4,M,0000,0000*77
$GNRMC,150435.000,A,5341.7840,N,01432.9698,E,0.00,347.25,191215,,,D*79
$GPVTG,347.25,T,,M,0.00,N,0.00,K,D*3F
$GPGGA,150436.000,5341.7840,N,01432.9698,E,2,16,0.65,-10.5,M,41.4,M,0000,0000*74
$GNRMC,150436.000,A,5341.7840,N,01432.9698,E,0.00,347.25,191215,,,D*7A
$GPVTG,347.25,T,,M,0.00,N,0.00,K,D*3F
$GPGGA,150437.000,5341.7840,N,01432.9698,E,2,16,0.65,-10.5,M,41.4,M,0000,0000*75
$GNRMC,150437.000,A,5341.7840,N,01432.9698,E,0.00,347.25,191215,,,D*7B
$GPVTG,347.25,T,,M,0.00,N,0.00,K,D*3F
$GPGGA,150438.000,5341.7840,N,01432.9698,E,2,16,0.65,-10.5,M,41.4,M,0000,0000*7A
$GNGSA,A,3,07,05,23,16,30,02,06,09,,,,,1.25,0.65,1.07*15
$GNGSA,A,3,65,83,67,75,82,76,77,66,,,,,1.25,0.65,1.07*1F
$GPGSV,3,1,11,07,66,168,30,09,63,084,31,30,37,199,31,02,34,261,17*70
$GPGSV,3,2,11,05,33,302,27,23,26,087,17,16,22,043,16,06,22,216,21*72
$GPGSV,3,3,11,29,06,328,17,26,06,020,18,50,,,*77
$GLGSV,3,1,09,66,73,099,31,76,67,128,18,67,47,310,29,75,35,038,15*6A
$GLGSV,3,2,09,77,23,187,22,83,21,328,28,65,17,119,15,82,12,273,17*68
$GLGSV,3,3,09,84,05,017,*53
$GNRMC,150438.000,A,5341.7840,N,01432.9698,E,0.00,347.25,191215,,,D*74
$GPVTG,347.25,T,,M,0.00,N,0.00,K,D*3F
$GPGGA,150439.000,5341.7840,N,01432.9698,E,2,16,0.65,-10.5,M,41.4,M,0000,0000*7B
$GNRMC,150439.000,A,5341.7840,N,01432.9698,E,0.00,347.25,191215,,,D*75
$GPVTG,347.25,T,,M,0.00,N,0.00,K,D*3F
$GPGGA,150440.000,5341.7840,N,01432.9698,E,2,16,0.65,-10.5,M,41.4,M,0000,0000*75
$GNRMC,150440.000,A,5341.7840,N,01432.9698,E,0.00,347.25,191215,,,D*7B
$GPVTG,347.25,T,,M,0.00,N,0.00,K,D*3F
$GPGGA,150441.000,5341.7840,N,01432.9698,E,2,16,0.65,-10.5,M,41.4,M,0000,0000*74
$GNRMC,150441.000,A,5341.7840,N,01432.9698,E,0.00,347.25,191215,,,D*7A
$GPVTG,347.25,T,,M,0.00,N,0.00,K,D*3F
$GPGGA,150442.000,5341.7840,N,01432.9698,E,2,16,0.65,-10.5,M,41.4,M,0000,0000*77
$GNRMC,150442.000,A,5341.7840,N,01432.9698,E,0.00,347.25,191215,,,D*79
$GPVTG,347.25,T,,M,0.00,N,0.00,K,D*3F
$GPGGA,150443.000,5341.7840,N,01432.9698,E,2,16,0.65,-10.5,M,41.4,M,0000,0000*76
$GNGSA,A,3,07,05,23,16,30,02,06,09,,,,,1.25,0.65,1.07*15
$GNGSA,A,3,65,83,67,75,82,76,77,66,,,,,1.25,0.65,1.07*1F
$GPGSV,3,1,11,07,66,168,30,09,63,084,31,30,37,199,31,02,34,261,16*71
$GPGSV,3,2,11,05,33,302,26,23,26,087,17,16,22,043,16,06,22,216,23*71
$GPGSV,3,3,11,29,06,328,16,26,06,020,17,48,,,*70
$GLGSV,3,1,09,66,73,099,33,76,67,128,18,67,47,310,29,75,35,038,16*6B
$GLGSV,3,2,09,77,23,187,20,83,21,328,28,65,17,119,16,82,12,273,16*68
$GLGSV,3,3,09,84,05,017,*53
$GNRMC,150443.000,A,5341.7840,N,01432.9698,E,0.00,347.25,191215,,,D*78
$GPVTG,347.25,T,,M,0.00,N,0.00,K,D*3F
$GPGGA,150444.000,5341.7840,N,01432.9698,E,2,16,0.65,-10.5,M,41.4,M,0000,0000*71
$GNRMC,150444.000,A,5341.7840,N,01432.9698,E,0.00,347.25,191215,,,D*7F
$GPVTG,347.25,T,,M,0.00,N,0.00,K,D*3F
$GPGGA,150445.000,5341.7840,N,01432.9698,E,2,16,0.65,-10.5,M,41.4,M,0000,0000*70
$GNRMC,150445.000,A,5341.7840,N,01432.9698,E,0.00,347.25,191215,,,D*7E
$GPVTG,347.25,T,,M,0.00,N,0.00,K,D*3F
$GPGGA,150446.000,5341.7840,N,01432.9698,E,2,16,0.65,-10.5,M,41.4,M,0000,0000*73
$GNRMC,150446.000,A,5341.7840,N,01432.9698,E,0.00,347.25,191215,,,D*7D
$GPVTG,347.25,T,,M,0.00,N,0.00,K,D*3F
$GPGGA,150447.000,5341.7840,N,01432.9698,E,2,16,0.65,-10.5,M,41.4,M,0000,0000*72
$GNRMC,150447.000,A,5341.7840,N,01432.9698,E,0.00,347.25,191215,,,D*7C
$GPVTG,347.25,T,,M,0.00,N,0.00,K,D*3F
$GPGGA,150448.000,5341.7840,N,01432.9698,E,2,16,0.65,-10.5,M,41.4,M,0000,0000*7D
$GNGSA,A,3,07,05,23,16,30,02,06,09,,,,,1.25,0.65,1.07*15
$GNGSA,A,3,65,83,67,75,82,76,77,66,,,,,1.25,0.65,1.07*1F
$GPGSV,3,1,11,07,66,168,30,09,63,084,32,30,37,199,31,02,34,261,17*73
$GPGSV,3,2,11,05,33,302,26,49,28,191,,23,26,087,17,16,22,043,16*7D
$GPGSV,3,3,11,06,22,216,22,29,06,328,16,26,06,020,17*4F
$GLGSV,3,1,09,66,73,099,33,76,67,128,18,67,47,310,30,75,35,038,15*60
$GLGSV,3,2,09,77,23,187,21,83,21,328,27,65,17,119,15,82,12,273,14*67
$GLGSV,3,3,09,84,05,017,*53
$GNRMC,150448.000,A,5341.7840,N,01432.9698,E,0.00,347.25,191215,,,D*73
$GPVTG,347.25,T,,M,0.00,N,0.00,K,D*3F
$GPGGA,150449.000,5341.7840,N,01432.9698,E,2,16,0.65,-10.5,M,41.4,M,0000,0000*7C
$GNRMC,150449.000,A,5341.7840,N,01432.9698,E,0.00,347.25,191215,,,D*72
$GPVTG,347.25,T,,M,0.00,N,0.00,K,D*3F
$GPGGA,150450.000,5341.7840,N,01432.9698,E,2,16,0.65,-10.5,M,41.4,M,0000,0000*74
$GNRMC,150450.000,A,5341.7840,N,01432.9698,E,0.00,347.25,191215,,,D*7A
$GPVTG,347.25,T,,M,0.00,N,0.00,K,D*3F
$GPGGA,150451.000,5341.7840,N,01432.9698,E,2,16,0.65,-10.5,M,41.4,M,0000,0000*75
$GNRMC,150451.000,A,5341.7840,N,01432.9698,E,0.00,347.25,191215,,,D*7B
$GPVTG,347.25,T,,M,0.00,N,0.00,K,D*3F
$GPGGA,150452.000,5341.7840,N,01432.9698,E,2,16,0.65,-10.5,M,41.4,M,0000,0000*76
$GNRMC,150452.000,A,5341.7840,N,01432.9698,E,0.00,347.25,191215,,,D*78
$GPVTG,347.25,T,,M,0.00,N,0.00,K,D*3F
$GPGGA,150453.000,5341.7840,N,01432.9698,E,2,16,0.65,-10.5,M,41.4,M,0000,0000*77
$GNGSA,A,3,07,05,23,16,30,02,06,09,,,,,1.25,0.65,1.07*15
$GNGSA,A,3,65,83,67,75,82,76,77,66,,,,,1.25,0.65,1.07*1F
$GPGSV,3,1,11,07,66,168,31,09,63,084,31,30,37,199,31,02,34,261,17*71
$GPGSV,3,2,11,05,33,302,26,49,28,191,,23,26,087,19,16,22,043,17*72
$GPGSV,3,3,11,06,22,216,24,29,06,328,16,26,06,020,17*49
$GLGSV,3,1,09,66,73,099,32,76,67,128,17,67,47,310,30,75,35,038,15*6E
$GLGSV,3,2,09,77,23,187,20,83,21,328,27,65,17,119,15,82,12,273,14*66
$GLGSV,3,3,09,84,05,017,*53
$GNRMC,150453.000,A,5341.7840,N,01432.9698,E,0.00,347.25,191215,,,D*79
$GPVTG,347.25,T,,M,0.00,N,0.00,K,D*3F
$GPGGA,150454.000,5341.7840,N,01432.9698,E,2,16,0.65,-10.5,M,41.4,M,0000,0000*70
$GNRMC,150454.000,A,5341.7840,N,01432.9698,E,0.00,347.25,191215,,,D*7E
$GPVTG,347.25,T,,M,0.00,N,0.00,K,D*3F
$GPGGA,150455.000,5341.7840,N,01432.9698,E,2,16,0.65,-10.5,M,41.4,M,0000,0000*71
$GNRMC,150455.000,A,5341.7840,N,01432.9698,E,0.00,347.25,191215,,,D*7F
$GPVTG,347.25,T,,M,0.00,N,0.00,K,D*3F
$GPGGA,150456.000,5341.7840,N,01432.9698,E,2,16,0.65,-10.5,M,41.4,M,0000,0000*72
$GNRMC,150456.000,A,5341.7840,N,01432.9698,E,0.00,347.25,191215,,,D*7C
$GPVTG,347.25,T,,M,0.00,N,0.00,K,D*3F
$GPGGA,150457.000,5341.7840,N,01432.9698,E,2,16,0.65,-10.5,M,41.4,M,0000,0000*73
$GNRMC,150457.000,A,5341.7840,N,01432.9698,E,0.00,347.25,191215,,,D*7D
$GPVTG,347.25,T,,M,0.00,N,0.00,K,D*3F
$GPGGA,150458.000,5341.7840,N,01432.9698,E,2,16,0.65,-10.5,M,41.4,M,0000,0000*7C
$GNGSA,A,3,07,05,23,16,30,02,06,09,,,,,1.25,0.65,1.07*15
$GNGSA,A,3,65,83,67,75,82,76,77,66,,,,,1.25,0.65,1.07*1F
$GPGSV,3,1,11,07,66,168,30,09,63,084,31,30,37,199,31,02,34,261,19*7E
$GPGSV,3,2,11,05,33,302,25,49,28,191,,23,26,087,20,16,22,043,17*7B
$GPGSV,3,3,11,06,22,216,21,29,06,328,17,26,06,020,17*4D
$GLGSV,3,1,09,66,73,099,32,76,67,128,17,67,47,310,30,75,35,038,17*6C
$GLGSV,3,2,09,77,23,187,19,83,21,328,26,65,17,120,16,82,12,273,17*67
$GLGSV,3,3,09,84,05,017,*53
$GNRMC,150458.000,A,5341.7840,N,01432.9698,E,0.00,347.25,191215,,,D*72
$GPVTG,347.25,T,,M,0.00,N,0.00,K,D*3F
$GPGGA,150459.000,5341.7840,N,01432.9698,E,2,16,0.65,-10.5,M,41.4,M,0000,0000*7D
$GNRMC,150459.000,A,5341.7840,N,01432.9698,E,0.00,347.25,191215,,,D*73
$GPVTG,347.25,T,,M,0.00,N,0.00,K,D*3F
$GPGGA,150500.000,5341.7840,N,01432.9698,E,2,16,0.65,-10.5,M,41.4,M,0000,0000*70
$GNRMC,150500.000,A,5341.7840,N,01432.9698,E,0.00,347.25,191215,,,D*7E
$GPVTG,347.25,T,,M,0.00,N,0.00,K,D*3F
$GPGGA,150501.000,5341.7840,N,01432.9698,E,2,16,0.65,-10.5,M,41.4,M,0000,0000*71
$GNRMC,150501.000,A,5341.7840,N,01432.9698,E,0.00,347.25,191215,,,D*7F
$GPVTG,347.25,T,,M,0.00,N,0.00,K,D*3F
$GPGGA,150502.000,5341.7840,N,01432.9698,E,2,16,0.65,-10.5,M,41.4,M,0000,0000*72
$GNRMC,150502.000,A,5341.7840,N,01432.9698,E,0.00,347.25,191215,,,D*7C
$GPVTG,347.25,T,,M,0.00,N,0.00,K,D*3F
$GPGGA,150503.000,5341.7840,N,01432.9698,E,2,16,0.65,-10.5,M,41.4,M,0000,0000*73
$GNGSA,A,3,07,05,23,16,30,02,06,09,,,,,1.25,0.65,1.07*15
$GNGSA,A,3,65,83,67,75,82,76,77,66,,,,,1.25,0.65,1.07*1F
$GPGSV,3,1,11,07,66,168,30,09,63,084,31,30,37,199,31,02,34,261,21*75
$GPGSV,3,2,11,05,33,302,25,49,28,191,,23,26,087,20,16,22,043,15*79
$GPGSV,3,3,11,06,22,216,21,29,06,328,14,26,06,020,18*41
$GLGSV,3,1,09,66,72,100,32,76,67,128,16,67,47,310,30,75,35,038,17*6D
$GLGSV,3,2,09,77,23,187,19,83,21,328,27,65,17,120,16,82,12,273,16*67
$GLGSV,3,3,09,84,05,017,*53
$GNRMC,150503.000,A,5341.7840,N,01432.9698,E,0.00,347.25,191215,,,D*7D
$GPVTG,347.25,T,,M,0.00,N,0.00,K,D*3F
$GPGGA,150504.000,5341.7840,N,01432.9698,E,2,16,0.65,-10.5,M,41.4,M,0000,0000*74
$GNRMC,150504.000,A,5341.7840,N,01432.9698,E,0.00,347.25,191215,,,D*7A
$GPVTG,347.25,T,,M,0.00,N,0.00,K,D*3F
$GPGGA,150505.000,5341.7840,N,01432.9698,E,2,16,0.65,-10.5,M,41.4,M,0000,0000*75
$GNRMC,150505.000,A,5341.7840,N,01432.9698,E,0.00,347.25,191215,,,D*7B
$GPVTG,347.25,T,,M,0.00,N,0.00,K,D*3F
$GPGGA,150506.000,5341.7840,N,01432.9698,E,2,16,0.65,-10.5,M,41.4,M,0000,0000*76
$GNRMC,150506.000,A,5341.7840,N,01432.9698,E,0.00,347.25,191215,,,D*78
$GPVTG,347.25,T,,M,0.00,N,0.00,K,D*3F
$GPGGA,150507.000,5341.7840,N,01432.9698,E,2,16,0.65,-10.5,M,41.4,M,0000,0000*77
$GNRMC,150507.000,A,5341.7840,N,01432.9698,E,0.00,347.25,191215,,,D*79
$GPVTG,347.25,T,,M,0.00,N,0.00,K,D*3F
$GPGGA,150508.000,5341.7840,N,01432.9698,E,2,16,0.65,-10.5,M,41.4,M,0000,0000*78
$GNGSA,A,3,07,05,23,16,30,02,06,09,,,,,1.25,0.65,1.07*15
$GNGSA,A,3,65,83,67,75,82,76,77,66,,,,,1.25,0.65,1.07*1F
$GPGSV,3,1,11,07,66,168,31,09,63,084,30,30,37,199,31,02,34,261,20*74
$GPGSV,3,2,11,05,33,302,23,49,28,191,,23,26,087,19,16,22,043,14*74
$GPGSV,3,3,11,06,22,216,22,29,06,328,15,26,06,020,17*4C
$GLGSV,3,1,09,66,72,100,33,76,67,128,17,67,47,310,30,75,34,037,15*61
$GLGSV,3,2,09,77,23,187,17,83,21,328,26,65,17,120,16,82,12,273,17*69
$GLGSV,3,3,09,84,05,017,*53
$GNRMC,150508.000,A,5341.7840,N,01432.9698,E,0.00,347.25,191215,,,D*76
$GPVTG,347.25,T,,M,0.00,N,0.00,K,D*3F
$GPGGA,150509.000,5341.7840,N,01432.9698,E,2,16,0.65,-10.5,M,41.4,M,0000,0000*79
$GNRMC,150509.000,A,5341.7840,N,01432.9698,E,0.00,347.25,191215,,,D*77
$GPVTG,347.25,T,,M,0.00,N,0.00,K,D*3F
$GPGGA,150510.000,5341.7840,N,01432.9698,E,2,16,0.65,-10.5,M,41.4,M,0000,0000*71
$GNRMC,150510.000,A,5341.7840,N,01432.9698,E,0.00,347.25,191215,,,D*7F
$GPVTG,347.25,T,,M,0.00,N,0.00,K,D*3F
$GPGGA,150511.000,5341.7840,N,01432.9698,E,2,16,0.65,-10.5,M,41.4,M,0000,0000*70
$GNRMC,150511.000,A,5341.7840,N,01432.9698,E,0.00,347.25,191215,,,D*7E
$GPVTG,347.25,T,,M,0.00,N,0.00,K,D*3F
$GPGGA,150512.000,5341.7840,N,01432.9698,E,2,16,0.65,-10.5,M,41.4,M,0000,0000*73
$GNRMC,150512.000,A,5341.7840,N,01432.9698,E,0.00,347.25,191215,,,D*7D
$GPVTG,347.25,T,,M,0.00,N,0.00,K,D*3F
$GPGGA,150513.000,5341.7840,N,01432.9698,E,2,16,0.65,-10.5,M,41.4,M,0000,0000*72
$GNGSA,A,3,07,05,23,16,30,02,06,09,,,,,1.25,0.65,1.07*15
$GNGSA,A,3,65,83,67,75,82,76,77,66,,,,,1.25,0.65,1.07*1F
$GPGSV,3,1,11,07,66,168,30,09,63,084,29,30,37,199,31,02,34,261,22*7F
$GPGSV,3,2,11,05,33,302,22,49,28,191,,23,26,087,19,16,22,043,16*77
$GPGSV,3,3,11,06,22,216,24,29,06,328,,26,06,020,16*4F
$GLGSV,3,1,09,66,72,100,32,76,67,127,18,67,47,310,31,75,34,037,15*61
$GLGSV,3,2,09,77,24,187,17,83,21,328,27,65,17,120,15,82,12,273,16*6D
$GLGSV,3,3,09,84,05,017,*53
$GNRMC,150513.000,A,5341.7840,N,01432.9698,E,0.00,347.25,191215,,,D*7C
$GPVTG,347.25,T,,M,0.00,N,0.00,K,D*3F
$GPGGA,150514.000,5341.7840,N,01432.9698,E,2,16,0.65,-10.5,M,41.4,M,0000,0000*75
$GNRMC,150514.000,A,5341.7840,N,01432.9698,E,0.00,347.25,191215,,,D*7B
$GPVTG,347.25,T,,M,0.00,N,0.00,K,D*3F
$GPGGA,150515.000,5341.7840,N,01432.9698,E,2,16,0.65,-10.5,M,41.4,M,0000,0000*74
$GNRMC,150515.000,A,5341.7840,N,01432.9698,E,0.00,347.25,191215,,,D*7A
$GPVTG,347.25,T,,M,0.00,N,0.00,K,D*3F
$GPGGA,150516.000,5341.7840,N,01432.9698,E,2,16,0.65,-10.5,M,41.4,M,0000,0000*77
$GNRMC,150516.000,A,5341.7840,N,01432.9698,E,0.00,347.25,191215,,,D*79
$GPVTG,347.25,T,,M,0.00,N,0.00,K,D*3F
$GPGGA,150517.000,5341.7840,N,01432.9698,E,2,16,0.65,-10.5,M,41.4,M,0000,0000*76
$GNRMC,150517.000,A,5341.7840,N,01432.9698,E,0.00,347.25,191215,,,D*78
$GPVTG,347.25,T,,M,0.00,N,0.00,K,D*3F
$GPGGA,150518.000,5341.7840,N,01432.9698,E,2,16,0.65,-10.5,M,41.4,M,0000,0000*79
$GNGSA,A,3,07,05,23,16,30,02,06,09,,,,,1.25,0.65,1.06*14
$GNGSA,A,3,65,83,67,75,82,76,77,66,,,,,1.25,0.65,1.06*1E
$GPGSV,3,1,11,07,66,168,30,09,63,084,28,30,37,199,31,02,34,261,23*7F
$GPGSV,3,2,11,05,33,302,22,49,28,191,,23,26,087,19,16,22,043,15*74
$GPGSV,3,3,11,06,22,216,24,29,06,328,,26,06,020,15*4C
$GLGSV,3,1,09,66,72,100,32,76,67,127,18,67,47,310,31,75,34,037,15*61
$GLGSV,3,2,09,77,24,187,17,83,21,327,27,65,17,120,15,82,11,273,16*61
$GLGSV,3,3,09,84,05,016,*52
$GNRMC,150518.000,A,5341.7840,N,01432.9698,E,0.00,347.25,191215,,,D*77
$GPVTG,347.25,T,,M,0.00,N,0.00,K,D*3F
$GPGGA,150519.000,5341.7840,N,01432.9698,E,2,16,0.65,-10.5,M,41.4,M,0000,0000*78
$GNRMC,150519.000,A,5341.7840,N,01432.9698,E,0.00,347.25,191215,,,D*76
$GPVTG,347.25,T,,M,0.00,N,0.00,K,D*3F
$GPGGA,150520.000,5341.7840,N,01432.9698,E,2,16,0.65,-10.5,M,41.4,M,0000,0000*72
$GNRMC,150520.000,A,5341.7840,N,01432.9698,E,0.00,347.25,191215,,,D*7C
$GPVTG,347.25,T,,M,0.00,N,0.00,K,D*3F
$GPGGA,150521.000,5341.7840,N,01432.9698,E,2,16,0.65,-10.5,M,41.4,M,0000,0000*73
$GNRMC,150521.000,A,5341.7840,N,01432.9698,E,0.00,347.25,191215,,,D*7D
$GPVTG,347.25,T,,M,0.00,N,0.00,K,D*3F
$GPGGA,150522.000,5341.7840,N,01432.9698,E,2,16,0.65,-10.5,M,41.4,M,0000,0000*70
$GNRMC,150522.000,A,5341.7840,N,01432.9698,E,0.00,347.25,191215,,,D*7E
$GPVTG,347.25,T,,M,0.00,N,0.00,K,D*3F
$GPGGA,150523.000,5341.7840,N,01432.9698,E,2,16,0.65,-10.5,M,41.4,M,0000,0000*71
$GNGSA,A,3,07,05,23,16,30,02,06,09,,,,,1.25,0.65,1.06*14
$GNGSA,A,3,65,83,67,75,82,76,77,66,,,,,1.25,0.65,1.06*1E
$GPGSV,3,1,11,07,66,168,30,09,63,084,28,30,37,199,31,02,34,260,23*7E
$GPGSV,3,2,11,05,33,302,21,49,28,191,,23,26,087,19,16,22,043,14*76
$GPGSV,3,3,11,06,22,216,23,29,06,328,,26,06,020,17*49
$GLGSV,3,1,09,66,72,100,32,76,67,127,18,67,47,310,30,75,34,037,14*61
$GLGSV,3,2,09,77,24,187,16,83,21,327,27,65,17,120,15,82,11,273,15*63
$GLGSV,3,3,09,84,05,016,*52
$GNRMC,150523.000,A,5341.7840,N,01432.9698,E,0.00,347.25,191215,,,D*7F
$GPVTG,347.25,T,,M,0.00,N,0.00,K,D*3F
$GPGGA,150524.000,5341.7840,N,01432.9698,E,2,16,0.65,-10.5,M,41.4,M,0000,0000*76
$GNRMC,150524.000,A,5341.7840,N,01432.9698,E,0.00,347.25,191215,,,D*78
$GPVTG,347.25,T,,M,0.00,N,0.00,K,D*3F
$GPGGA,150525.000,5341.7840,N,01432.9698,E,2,16,0.65,-10.5,M,41.4,M,0000,0000*77
$GNRMC,150525.000,A,5341.7840,N,01432.9698,E,0.00,347.25,191215,,,D*79
$GPVTG,347.25,T,,M,0.00,N,0.00,K,D*3F
$GPGGA,150526.000,5341.7840,N,01432.9698,E,2,16,0.65,-10.5,M,41.4,M,0000,0000*74
$GNRMC,150526.000,A,5341.7840,N,01432.9698,E,0.00,347.25,191215,,,D*7A
$GPVTG,347.25,T,,M,0.00,N,0.00,K,D*3F
$GPGGA,150527.000,5341.7840,N,01432.9698,E,2,16,0.65,-10.5,M,41.4,M,0000,0000*75
$GNRMC,150527.000,A,5341.7840,N,01432.9698,E,0.00,347.25,191215,,,D*7B
$GPVTG,347.25,T,,M,0.00,N,0.00,K,D*3F
$GPGGA,150528.000,5341.7840,N,01432.9698,E,2,15,0.69,-10.5,M,41.4,M,0000,0000*75
$GNGSA,A,3,07,05,23,30,02,06,09,,,,,,1.31,0.69,1.11*1C
$GNGSA,A,3,65,83,67,75,82,76,77,66,,,,,1.31,0.69,1.11*11
$GPGSV,3,1,11,07,67,167,30,09,63,084,28,30,37,199,31,02,34,260,23*70
$GPGSV,3,2,11,05,33,302,23,37,28,171,,23,26,087,18,16,22,043,*77
$GPGSV,3,3,11,06,21,215,22,29,06,328,,26,06,020,16*49
$GLGSV,3,1,09,66,72,100,32,76,67,127,17,67,47,310,30,75,34,037,14*6E
$GLGSV,3,2,09,77,24,187,16,83,21,327,26,65,17,120,15,82,11,273,16*61
$GLGSV,3,3,09,84,05,016,*52
$GNRMC,150528.000,A,5341.7840,N,01432.9698,E,0.00,347.25,191215,,,D*74
$GPVTG,347.25,T,,M,0.00,N,0.00,K,D*3F
$GPGGA,150529.000,5341.7840,N,01432.9698,E,2,15,0.69,-10.5,M,41.4,M,0000,0000*74
$GNRMC,150529.000,A,5341.7840,N,01432.9698,E,0.00,347.25,191215,,,D*75
$GPVTG,347.25,T,,M,0.00,N,0.00,K,D*3F
$GPGGA,150530.000,5341.7840,N,01432.9698,E,2,15,0.69,-10.5,M,41.4,M,0000,0000*7C
$GNRMC,150530.000,A,5341.7840,N,01432.9698,E,0.00,347.25,191215,,,D*7D
$GPVTG,347.25,T,,M,0.00,N,0.00,K,D*3F
$GPGGA,150531.000,5341.7840,N,01432.9698,E,2,15,0.69,-10.5,M,41.4,M,0000,0000*7D
$GNRMC,150531.000,A,5341.7840,N,01432.9698,E,0.00,347.25,191215,,,D*7C
$GPVTG,347.25,T,,M,0.00,N,0.00,K,D*3F
$GPGGA,150532.000,5341.7840,N,01432.9698,E,2,15,0.69,-10.5,M,41.4,M,0000,0000*7E
$GNRMC,150532.000,A,5341.7840,N,01432.9698,E,0.00,347.25,191215,,,D*7F
$GPVTG,347.25,T,,M,0.00,N,0.00,K,D*3F
$GPGGA,150533.000,5341.7840,N,01432.9698,E,2,16,0.65,-10.5,M,41.4,M,0000,0000*70
$GNGSA,A,3,07,05,23,16,30,02,06,09,,,,,1.24,0.65,1.06*15
$GNGSA,A,3,65,83,67,75,82,76,77,66,,,,,1.24,0.65,1.06*1F
$GPGSV,3,1,11,07,67,167,31,09,62,085,30,30,37,199,31,02,34,260,24*7F
$GPGSV,3,2,11,05,33,302,23,37,28,171,,23,26,087,16,16,22,043,13*7B
$GPGSV,3,3,11,06,21,215,21,29,06,328,,26,06,020,17*4B
$GLGSV,3,1,09,66,72,100,31,76,67,127,18,67,47,310,29,75,34,037,16*68
$GLGSV,3,2,09,77,24,187,16,83,21,327,26,65,17,120,14,82,11,273,16*60
$GLGSV,3,3,09,84,05,016,*52
$GNRMC,150533.000,A,5341.7840,N,01432.9698,E,0.00,347.25,191215,,,D*7E
$GPVTG,347.25,T,,M,0.00,N,0.00,K,D*3F
$GPGGA,150534.000,5341.7840,N,01432.9698,E,2,16,0.65,-10.5,M,41.4,M,0000,0000*77
$GNRMC,150534.000,A,5341.7840,N,01432.9698,E,0.00,347.25,191215,,,D*79
$GPVTG,347.25,T,,M,0.00,N,0.00,K,D*3F
$GPGGA,150535.000,5341.7840,N,01432.9698,E,2,16,0.65,-10.5,M,41.4,M,0000,0000*76
$GNRMC,150535.000,A,5341.7840,N,01432.9698,E,0.00,347.25,191215,,,D*78
$GPVTG,347.25,T,,M,0.00,N,0.00,K,D*3F
$GPGGA,150536.000,5341.7840,N,01432.9698,E,2,16,0.65,-10.5,M,41.4,M,0000,0000*75
$GNRMC,150536.000,A,5341.7840,N,01432.9698,E,0.00,347.25,191215,,,D*7B
$GPVTG,347.25,T,,M,0.00,N,0.00,K,D*3F
$GPGGA,150537.000,5341.7840,N,01432.9698,E,2,16,0.65,-10.5,M,41.4,M,0000,0000*74
$GNRMC,150537.000,A,5341.7840,N,01432.9698,E,0.00,347.25,191215,,,D*7A
$GPVTG,347.25,T,,M,0.00,N,0.00,K,D*3F
$GPGGA,150538.000,5341.7840,N,01432.9698,E,2,15,0.68,-10.5,M,41.4,M,0000,0000*75
$GNGSA,A,3,07,05,23,16,30,02,06,09,,,,,1.26,0.68,1.06*1A
$GNGSA,A,3,65,83,67,82,76,77,66,,,,,,1.26,0.68,1.06*12
$GPGSV,3,1,11,07,67,167,30,09,62,085,30,30,37,199,31,02,34,260,25*7F
$GPGSV,3,2,11,05,33,302,20,39,27,167,,23,26,087,16,16,21,042,15*7A
$GPGSV,3,3,11,06,21,215,18,29,06,328,,26,06,020,18*4E
$GLGSV,3,1,09,66,72,100,32,76,67,127,18,67,47,310,29,75,34,037,*6C
$GLGSV,3,2,09,77,24,187,14,83,21,327,26,65,17,120,13,82,11,273,17*64
$GLGSV,3,3,09,84,05,016,*52
$GNRMC,150538.000,A,5341.7840,N,01432.9698,E,0.00,347.25,191215,,,D*75
$GPVTG,347.25,T,,M,0.00,N,0.00,K,D*3F
$GPGGA,150539.000,5341.7840,N,01432.9698,E,2,15,0.68,-10.5,M,41.4,M,0000,0000*74
$GNRMC,150539.000,A,5341.7840,N,01432.9698,E,0.00,347.25,191215,,,D*74
$GPVTG,347.25,T,,M,0.00,N,0.00,K,D*3F
$GPGGA,150540.000,5341.7840,N,01432.9698,E,2,15,0.68,-10.5,M,41.4,M,0000,0000*7A
$GNRMC,150540.000,A,5341.7840,N,01432.9698,E,0.00,347.25,191215,,,D*7A
$GPVTG,347.25,T,,M,0.00,N,0.00,K,D*3F
$GPGGA,150541.000,5341.7840,N,01432.9698,E,2,15,0.68,-10.5,M,41.4,M,0000,0000*7B
$GNRMC,150541.000,A,5341.7840,N,01432.9698,E,0.00,347.25,191215,,,D*7B
$GPVTG,347.25,T,,M,0.00,N,0.00,K,D*3F
$GPGGA,150542.000,5341.7840,N,01432.9698,E,2,15,0.68,-10.5,M,41.4,M,0000,0000*78
$GNRMC,150542.000,A,5341.7840,N,01432.9698,E,0.00,347.25,191215,,,D*78
$GPVTG,347.25,T,,M,0.00,N,0.00,K,D*3F
$GPGGA,150543.000,5341.7840,N,01432.9698,E,2,15,0.68,-10.5,M,41.4,M,0000,0000*79
$GNGSA,A,3,07,05,23,16,30,02,06,09,,,,,1.26,0.68,1.06*1A
$GNGSA,A,3,65,83,67,82,76,77,66,,,,,,1.26,0.68,1.06*12
$GPGSV,3,1,11,07,67,167,28,09,62,085,30,30,37,199,31,02,34,260,25*76
$GPGSV,3,2,11,05,33,302,18,39,27,167,,23,26,087,15,16,21,042,16*71
$GPGSV,3,3,11,06,21,215,18,29,06,328,,26,06,020,18*4E
$GLGSV,3,1,09,66,72,100,31,76,67,127,18,67,47,310,29,75,34,037,*6F
$GLGSV,3,2,09,77,24,187,15,83,21,327,26,65,17,120,15,82,11,273,19*6D
$GLGSV,3,3,09,84,05,016,*52
$GNRMC,150543.000,A,5341.7840,N,01432.9698,E,0.00,347.25,191215,,,D*79
$GPVTG,347.25,T,,M,0.00,N,0.00,K,D*3F
$GPGGA,150544.000,5341.7840,N,01432.9698,E,2,15,0.68,-10.5,M,41.4,M,0000,0000*7E
$GNRMC,150544.000,A,5341.7840,N,01432.9698,E,0.00,347.25,191215,,,D*7E
$GPVTG,347.25,T,,M,0.00,N,0.00,K,D*3F
$GPGGA,150545.000,5341.7840,N,01432.9698,E,2,15,0.68,-10.5,M,41.4,M,0000,0000*7F
$GNRMC,150545.000,A,5341.7840,N,01432.9698,E,0.00,347.25,191215,,,D*7F
$GPVTG,347.25,T,,M,0.00,N,0.00,K,D*3F
$GPGGA,150546.000,5341.7840,N,01432.9698,E,2,15,0.68,-10.5,M,41.4,M,0000,0000*7C
$GNRMC,150546.000,A,5341.7840,N,01432.9698,E,0.00,347.25,191215,,,D*7C
$GPVTG,347.25,T,,M,0.00,N,0.00,K,D*3F
$GPGGA,150547.000,5341.7840,N,01432.9698,E,2,15,0.68,-10.5,M,41.4,M,0000,0000*7D
$GNRMC,150547.000,A,5341.7840,N,01432.9698,E,0.00,347.25,191215,,,D*7D
$GPVTG,347.25,T,,M,0.00,N,0.00,K,D*3F
$GPGGA,150548.000,5341.7840,N,01432.9698,E,2,16,0.65,-10.5,M,41.4,M,0000,0000*7C
$GNGSA,A,3,07,05,23,16,30,02,06,09,,,,,1.24,0.65,1.06*15
$GNGSA,A,3,65,83,67,75,82,76,77,66,,,,,1.24,0.65,1.06*1F
$GPGSV,3,1,11,07,67,167,29,09,62,085,31,30,37,199,32,02,34,260,27*77
$GPGSV,3,2,11,05,33,302,19,23,25,087,14,33,22,215,,16,21,042,15*78
$GPGSV,3,3,11,06,21,215,21,29,06,328,14,26,05,020,18*42
$GLGSV,3,1,09,66,72,100,33,76,67,127,19,67,47,310,29,75,34,037,16*6B
$GLGSV,3,2,09,77,24,187,16,83,21,327,26,65,17,120,15,82,11,273,19*6E
$GLGSV,3,3,09,84,05,016,*52
$GNRMC,150548.000,A,5341.7840,N,01432.9698,E,0.00,347.25,191215,,,D*72
$GPVTG,347.25,T,,M,0.00,N,0.00,K,D*3F
$GPGGA,150549.000,5341.7840,N,01432.9698,E,2,16,0.65,-10.5,M,41.4,M,0000,0000*7D
$GNRMC,150549.000,A,5341.7840,N,01432.9698,E,0.00,347.25,191215,,,D*73
$GPVTG,347.25,T,,M,0.00,N,0.00,K,D*3F
$GPGGA,150550.000,5341.7840,N,01432.9698,E,2,16,0.65,-10.5,M,41.4,M,0000,0000*75
$GNRMC,150550.000,A,5341.7840,N,01432.9698,E,0.00,347.25,191215,,,D*7B
$GPVTG,347.25,T,,M,0.00,N,0.00,K,D*3F
$GPGGA,150551.000,5341.7840,N,01432.9698,E,2,16,0.65,-10.5,M,41.4,M,0000,0000*74
$GNRMC,150551.000,A,5341.7840,N,01432.9698,E,0.00,347.25,191215,,,D*7A
$GPVTG,347.25,T,,M,0.00,N,0.00,K,D*3F
$GPGGA,150552.000,5341.7840,N,01432.9698,E,2,16,0.65,-10.5,M,41.4,M,0000,0000*77
$GNRMC,150552.000,A,5341.7840,N,01432.9698,E,0.00,347.25,191215,,,D*79
$GPVTG,347.25,T,,M,0.00,N,0.00,K,D*3F
$GPGGA,150553.000,5341.7840,N,01432.9698,E,2,16,0.65,-10.5,M,41.4,M,0000,0000*76
$GNGSA,A,3,07,05,23,16,30,02,06,09,,,,,1.24,0.65,1.06*15
$GNGSA,A,3,65,83,67,75,82,76,77,66,,,,,1.24,0.65,1.06*1F
$GPGSV,3,1,11,07,67,167,29,09,62,085,31,30,38,199,32,02,34,260,28*77
$GPGSV,3,2,11,05,33,302,17,23,25,087,15,33,22,215,,16,21,042,15*77
$GPGSV,3,3,11,06,21,215,20,29,06,328,14,26,05,020,18*43
$GLGSV,3,1,09,66,72,100,32,76,67,127,19,67,47,310,29,75,34,037,16*6A
$GLGSV,3,2,09,77,24,187,15,83,21,327,26,65,17,120,17,82,11,273,20*65
$GLGSV,3,3,09,84,05,016,*52
$GNRMC,150553.000,A,5341.7840,N,01432.9698,E,0.00,347.25,191215,,,D*78
$GPVTG,347.25,T,,M,0.00,N,0.00,K,D*3F
$GPGGA,150554.000,5341.7840,N,01432.9698,E,2,16,0.65,-10.5,M,41.4,M,0000,0000*71
$GNRMC,150554.000,A,5341.7840,N,01432.9698,E,0.00,347.25,191215,,,D*7F
$GPVTG,347.25,T,,M,0.00,N,0.00,K,D*3F
$GPGGA,150555.000,5341.7840,N,01432.9698,E,2,16,0.65,-10.5,M,41.4,M,0000,0000*70
$GNRMC,150555.000,A,5341.7840,N,01432.9698,E,0.00,347.25,191215,,,D*7E
$GPVTG,347.25,T,,M,0.00,N,0.00,K,D*3F
$GPGGA,150556.000,5341.7840,N,01432.9698,E,2,16,0.65,-10.5,M,41.4,M,0000,0000*73
$GNRMC,150556.000,A,5341.7840,N,01432.9698,E,0.00,347.25,191215,,,D*7D
$GPVTG,347.25,T,,M,0.00,N,0.00,K,D*3F
$GPGGA,150557.000,5341.7840,N,01432.9698,E,2,16,0.65,-10.5,M,41.4,M,0000,0000*72
$GNRMC,150557.000,A,5341.7840,N,01432.9698,E,0.00,347.25,191215,,,D*7C
$GPVTG,347.25,T,,M,0.00,N,0.00,K,D*3F
$GPGGA,150558.000,5341.7840,N,01432.9698,E,2,15,0.69,-10.5,M,41.4,M,0000,0000*72
$GNGSA,A,3,07,05,23,30,02,06,09,,,,,,1.31,0.69,1.11*1C
$GNGSA,A,3,65,83,67,75,82,76,77,66,,,,,1.31,0.69,1.11*11
$GPGSV,3,1,11,07,67,167,30,09,62,085,31,30,38,199,32,02,34,260,28*7F
$GPGSV,3,2,11,05,33,302,17,23,25,087,15,16,21,042,,06,21,215,20*74
$GPGSV,3,3,11,40,14,124,,29,06,328,15,26,05,020,19*44
$GLGSV,3,1,09,66,72,100,32,76,67,127,21,67,47,310,29,75,34,037,16*61
$GLGSV,3,2,09,77,24,187,16,83,21,327,26,65,17,120,18,82,11,273,21*68
$GLGSV,3,3,09,84,05,016,*52
$GNRMC,150558.000,A,5341.7840,N,01432.9698,E,0.00,347.25,191215,,,D*73
$GPVTG,347.25,T,,M,0.00,N,0.00,K,D*3F
$GPGGA,150559.000,5341.7840,N,01432.9698,E,2,15,0.69,-10.5,M,41.4,M,0000,0000*73
$GNRMC,150559.000,A,5341.7840,N,01432.9698,E,0.00,347.25,191215,,,D*72
$GPVTG,347.25,T,,M,0.00,N,0.00,K,D*3F
$GPGGA,150600.000,5341.7840,N,01432.9698,E,2,15,0.69,-10.5,M,41.4,M,0000,0000*7C
$GNRMC,150600.000,A,5341.7840,N,01432.9698,E,0.00,347.25,191215,,,D*7D
$GPVTG,347.25,T,,M,0.00,N,0.00,K,D*3F
$GPGGA,150601.000,5341.7840,N,01432.9698,E,2,15,0.69,-10.5,M,41.4,M,0000,0000*7D
$GNRMC,150601.000,A,5341.7840,N,01432.9698,E,0.00,347.25,191215,,,D*7C
$GPVTG,347.25,T,,M,0.00,N,0.00,K,D*3F
$GPGGA,150602.000,5341.7840,N,01432.9698,E,2,15,0.69,-10.5,M,41.4,M,0000,0000*7E
$GNRMC,150602.000,A,5341.7840,N,01432.9698,E,0.00,347.25,191215,,,D*7F
$GPVTG,347.25,T,,M,0.00,N,0.00,K,D*3F
$GPGGA,150603.000,5341.7840,N,01432.9698,E,2,16,0.65,-10.5,M,41.4,M,0000,0000*70
$GNGSA,A,3,07,05,23,16,30,02,06,09,,,,,1.24,0.65,1.06*15
$GNGSA,A,3,65,83,67,75,82,76,77,66,,,,,1.24,0.65,1.06*1F
$GPGSV,3,1,11,07,67,167,28,09,62,085,31,30,38,199,31,02,34,260,27*7A
$GPGSV,3,2,11,05,33,302,18,23,25,087,14,16,21,042,21,06,21,215,20*79
$GPGSV,3,3,11,40,14,124,,29,06,328,16,26,05,020,19*47
$GLGSV,3,1,09,66,72,100,31,76,67,127,21,67,47,310,28,75,34,037,16*63
$GLGSV,3,2,09,77,24,187,16,83,21,327,26,65,17,120,19,82,11,273,21*69
$GLGSV,3,3,09,84,05,016,*52
$GNRMC,150603.000,A,5341.7840,N,01432.9698,E,0.00,347.25,191215,,,D*7E
$GPVTG,347.25,T,,M,0.00,N,0.00,K,D*3F
$GPGGA,150604.000,5341.7840,N,01432.9698,E,2,16,0.65,-10.5,M,41.4,M,0000,0000*77
$GNRMC,150604.000,A,5341.7840,N,01432.9698,E,0.00,347.25,191215,,,D*79
$GPVTG,347.25,T,,M,0.00,N,0.00,K,D*3F
$GPGGA,150605.000,5341.7840,N,01432.9698,E,2,16,0.65,-10.5,M,41.4,M,0000,0000*76
$GNRMC,150605.000,A,5341.7840,N,01432.9698,E,0.00,347.25,191215,,,D*78
$GPVTG,347.25,T,,M,0.00,N,0.00,K,D*3F
$GPGGA,150606.000,5341.7840,N,01432.9698,E,2,16,0.65,-10.5,M,41.4,M,0000,0000*75
$GNRMC,150606.000,A,5341.7840,N,01432.9698,E,0.00,347.25,191215,,,D*7B
$GPVTG,347.25,T,,M,0.00,N,0.00,K,D*3F
$GPGGA,150607.000,5341.7840,N,01432.9698,E,2,16,0.65,-10.5,M,41.4,M,0000,0000*74
$GNRMC,150607.000,A,5341.7840,N,01432.9698,E,0.00,347.25,191215,,,D*7A
$GPVTG,347.25,T,,M,0.00,N,0.00,K,D*3F
$GPGGA,150608.000,5341.7840,N,01432.9698,E,2,16,0.65,-10.5,M,41.4,M,0000,0000*7B
$GNGSA,A,3,07,05,23,16,30,02,06,09,,,,,1.24,0.65,1.06*15
$GNGSA,A,3,65,83,67,75,82,76,77,66,,,,,1.24,0.65,1.06*1F
$GPGSV,3,1,11,07,67,167,27,09,62,085,31,30,38,199,30,02,34,260,28*7B
$GPGSV,3,2,11,05,33,302,18,23,25,087,16,16,21,042,21,06,21,215,22*79
$GPGSV,3,3,11,44,13,123,,29,06,328,16,26,05,020,19*43
$GLGSV,3,1,09,66,72,100,31,76,67,127,22,67,47,310,26,75,34,037,16*6E
$GLGSV,3,2,09,77,24,187,16,83,21,327,26,65,17,120,19,82,11,273,21*69
$GLGSV,3,3,09,84,05,016,*52
$GNRMC,150608.000,A,5341.7840,N,01432.9698,E,0.00,347.25,191215,,,D*75
$GPVTG,347.25,T,,M,0.00,N,0.00,K,D*3F
$GPGGA,150609.000,5341.7840,N,01432.9698,E,2,16,0.65,-10.5,M,41.4,M,0000,0000*7A
$GNRMC,150609.000,A,5341.7840,N,01432.9698,E,0.00,347.25,191215,,,D*74
$GPVTG,347.25,T,,M,0.00,N,0.00,K,D*3F
$GPGGA,150610.000,5341.7840,N,01432.9698,E,2,16,0.65,-10.5,M,41.4,M,0000,0000*72
$GNRMC,150610.000,A,5341.7840,N,01432.9698,E,0.00,347.25,191215,,,D*7C
$GPVTG,347.25,T,,M,0.00,N,0.00,K,D*3F
$GPGGA,150611.000,5341.7840,N,01432.9698,E,2,16,0.65,-10.5,M,41.4,M,0000,0000*73
$GNRMC,150611.000,A,5341.7840,N,01432.9698,E,0.00,347.25,191215,,,D*7D
$GPVTG,347.25,T,,M,0.00,N,0.00,K,D*3F
$GPGGA,150612.000,5341.7840,N,01432.9698,E,2,16,0.65,-10.5,M,41.4,M,0000,0000*70
$GNRMC,150612.000,A,5341.7840,N,01432.9698,E,0.00,347.25,191215,,,D*7E
$GPVTG,347.25,T,,M,0.00,N,0.00,K,D*3F
$GPGGA,150613.000,5341.7840,N,01432.9698,E,2,16,0.65,-10.5,M,41.4,M,0000,0000*71
$GNGSA,A,3,07,05,23,16,30,02,06,09,,,,,1.24,0.65,1.06*15
$GNGSA,A,3,65,83,67,75,82,76,77,66,,,,,1.24,0.65,1.06*1F
$GPGSV,3,1,11,07,67,167,28,09,62,085,31,30,38,199,30,02,34,260,28*74
$GPGSV,3,2,11,05,33,302,18,23,25,087,16,16,21,042,20,06,21,215,22*78
$GPGSV,3,3,11,44,13,123,,29,06,328,16,26,05,020,18*42
$GLGSV,3,1,09,66,72,100,32,76,67,127,23,67,47,310,26,75,34,037,17*6D
$GLGSV,3,2,09,77,24,187,16,83,21,327,24,65,17,120,19,82,11,273,22*68
$GLGSV,3,3,09,84,05,016,*52
$GNRMC,150613.000,A,5341.7840,N,01432.9698,E,0.00,347.25,191215,,,D*7F
$GPVTG,347.25,T,,M,0.00,N,0.00,K,D*3F
$GPGGA,150614.000,5341.7840,N,01432.9698,E,2,16,0.65,-10.5,M,41.4,M,0000,0000*76
$GNRMC,150614.000,A,5341.7840,N,01432.9698,E,0.00,347.25,191215,,,D*78
$GPVTG,347.25,T,,M,0.00,N,0.00,K,D*3F
$GPGGA,150615.000,5341.7840,N,01432.9698,E,2,16,0.65,-10.5,M,41.4,M,0000,0000*77
$GNRMC,150615.000,A,5341.7840,N,01432.9698,E,0.00,347.25,191215,,,D*79
$GPVTG,347.25,T,,M,0.00,N,0.00,K,D*3F
$GPGGA,150616.000,5341.7840,N,01432.9698,E,2,16,0.65,-10.5,M,41.4,M,0000,0000*74
$GNRMC,150616.000,A,5341.7840,N,01432.9698,E,0.00,347.25,191215,,,D*7A
$GPVTG,347.25,T,,M,0.00,N,0.00,K,D*3F
$GPGGA,150617.000,5341.7840,N,01432.9698,E,2,16,0.65,-10.5,M,41.4,M,0000,0000*75
$GNRMC,150617.000,A,5341.7840,N,01432.9698,E,0.00,347.25,191215,,,D*7B
$GPVTG,347.25,T,,M,0.00,N,0.00,K,D*3F
$GPGGA,150618.000,5341.7840,N,01432.9698,E,2,16,0.65,-10.5,M,41.4,M,0000,0000*7A
$GNGSA,A,3,07,05,23,16,30,02,06,09,,,,,1.24,0.65,1.06*15
$GNGSA,A,3,65,83,67,75,82,76,77,66,,,,,1.24,0.65,1.06*1F
$GPGSV,3,1,11,07,67,167,30,09,62,085,31,30,38,199,30,02,34,260,28*7D
$GPGSV,3,2,11,05,33,302,20,49,28,191,,23,25,087,16,16,21,042,20*7E
$GPGSV,3,3,11,06,21,215,23,29,06,328,16,26,05,020,18*42
$GLGSV,3,1,09,66,72,102,32,76,67,127,23,67,48,310,25,75,34,037,18*6C
$GLGSV,3,2,09,77,24,187,16,83,21,327,24,65,16,120,20,82,11,273,21*60
$GLGSV,3,3,09,84,05,016,*52
$GNRMC,150618.000,A,5341.7840,N,01432.9698,E,0.00,347.25,191215,,,D*74
$GPVTG,347.25,T,,M,0.00,N,0.00,K,D*3F
$GPGGA,150619.000,5341.7840,N,01432.9698,E,2,16,0.65,-10.5,M,41.4,M,0000,0000*7B
$GNRMC,150619.000,A,5341.7840,N,01432.9698,E,0.00,347.25,191215,,,D*75
$GPVTG,347.25,T,,M,0.00,N,0.00,K,D*3F
$GPGGA,150620.000,5341.7840,N,01432.9698,E,2,16,0.65,-10.5,M,41.4,M,0000,0000*71
$GNRMC,150620.000,A,5341.7840,N,01432.9698,E,0.00,347.25,191215,,,D*7F
$GPVTG,347.25,T,,M,0.00,N,0.00,K,D*3F
$GPGGA,150621.000,5341.7840,N,01432.9698,E,2,16,0.65,-10.5,M,41.4,M,0000,0000*70
$GNRMC,150621.000,A,5341.7840,N,01432.9698,E,0.00,347.25,191215,,,D*7E
$GPVTG,347.25,T,,M,0.00,N,0.00,K,D*3F
$GPGGA,150622.000,5341.7840,N,01432.9698,E,2,16,0.65,-10.5,M,41.4,M,0000,0000*73
$GNRMC,150622.000,A,5341.7840,N,01432.9698,E,0.00,347.25,191215,,,D*7D
$GPVTG,347.25,T,,M,0.00,N,0.00,K,D*3F
$GPGGA,150623.000,5341.7840,N,01432.9698,E,2,16,0.65,-10.5,M,41.4,M,0000,0000*72
$GNGSA,A,3,07,05,23,16,30,02,06,09,,,,,1.24,0.65,1.06*15
$GNGSA,A,3,65,83,67,75,82,76,77,66,,,,,1.24,0.65,1.06*1F
$GPGSV,3,1,11,07,67,167,29,09,62,085,31,30,38,199,31,02,34,260,29*75
$GPGSV,3,2,11,05,33,302,21,49,28,191,,23,25,087,17,16,21,042,20*7E
$GPGSV,3,3,11,06,21,215,23,29,06,328,16,26,05,020,18*42
$GLGSV,3,1,09,66,72,102,31,76,67,127,23,67,48,310,24,75,34,037,18*6E
$GLGSV,3,2,09,77,24,187,17,83,21,327,24,65,16,120,21,82,11,273,20*61
$GLGSV,3,3,09,84,05,016,*52
$GNRMC,150623.000,A,5341.7840,N,01432.9698,E,0.00,347.25,191215,,,D*7C
$GPVTG,347.25,T,,M,0.00,N,0.00,K,D*3F
$GPGGA,150624.000,5341.7840,N,01432.9698,E,2,16,0.65,-10.5,M,41.4,M,0000,0000*75
$GNRMC,150624.000,A,5341.7840,N,01432.9698,E,0.00,347.25,191215,,,D*7B
$GPVTG,347.25,T,,M,0.00,N,0.00,K,D*3F
$GPGGA,150625.000,5341.7840,N,01432.9698,E,2,16,0.65,-10.5,M,41.4,M,0000,0000*74
$GNRMC,150625.000,A,5341.7840,N,01432.9698,E,0.00,347.25,191215,,,D*7A
$GPVTG,347.25,T,,M,0.00,N,0.00,K,D*3F
$GPGGA,150626.000,5341.7840,N,01432.9698,E,2,16,0.65,-10.5,M,41.4,M,0000,0000*77
$GNRMC,150626.000,A,5341.7840,N,01432.9698,E,0.00,347.25,191215,,,D*79
$GPVTG,347.25,T,,M,0.00,N,0.00,K,D*3F
$GPGGA,150627.000,5341.7840,N,01432.9698,E,2,16,0.65,-10.5,M,41.4,M,0000,0000*76
$GNRMC,150627.000,A,5341.7840,N,01432.9698,E,0.00,347.25,191215,,,D*78
$GPVTG,347.25,T,,M,0.00,N,0.00,K,D*3F
$GPGGA,150628.000,5341.7840,N,01432.9698,E,2,16,0.65,-10.5,M,41.4,M,0000,0000*79
$GNGSA,A,3,07,05,23,16,30,02,06,09,,,,,1.24,0.65,1.05*16
$GNGSA,A,3,65,83,67,75,82,76,77,66,,,,,1.24,0.65,1.05*1C
$GPGSV,3,1,11,07,67,167,27,09,62,085,33,30,38,199,30,02,34,260,29*78
$GPGSV,3,2,11,05,33,302,21,49,28,191,,23,25,087,17,16,21,042,23*7D
$GPGSV,3,3,11,06,21,215,23,29,06,328,17,26,05,020,18*43
$GLGSV,3,1,09,66,72,102,31,76,68,125,23,67,48,310,24,75,34,037,18*63
$GLGSV,3,2,09,77,25,187,16,83,21,327,23,65,16,120,20,82,11,273,20*67
$GLGSV,3,3,09,84,05,016,*52
$GNRMC,150628.000,A,5341.7840,N,01432.9698,E,0.00,347.25,191215,,,D*77
$GPVTG,347.25,T,,M,0.00,N,0.00,K,D*3F
